{"businesses":[{"id":"5bTjUBhGbild5tuzfAmIJg","alias":"dennys-champaign","name":"Denny's","image_url":"https://s3-media1.fl.yelpcdn.com/bphoto/HONfKPNN0r0sYgGQpc4IZQ/o.jpg","is_closed":false,"url":"https://www.yelp.com/biz/dennys-champaign?adjust_creative=eL75PEDehXcsxUnhLGP6HA&utm_campaign=yelp_api_v3&utm_medium=api_v3_business_search&utm_source=eL75PEDehXcsxUnhLGP6HA","review_count":95,"categories":[{"alias":"diners","title":"Diners"},{"alias":"breakfast_brunch","title":"Breakfast & Brunch"},{"alias":"tradamerican","title":"American (Traditional)"}],"rating":2,"coordinates":{"latitude":40.14326150605237,"longitude":-88.25479388237},"transactions":["delivery","pickup"],"price":"$","location":{"address1":"702 W Town Center Blvd","address2":"","address3":"","city":"Champaign","zip_code":"61822","country":"US","state":"IL","display_address":["702 W Town Center Blvd","Champaign, IL 61822"]},"phone":"+12173597044","display_phone":"(217) 359-7044","distance":5534.090613454861},{"id":"xnH8I1jGSb6gkbqZOHHctg","alias":"dennys-bloomington-14","name":"Denny's","image_url":"https://s3-media4.fl.yelpcdn.com/bphoto/hM5CpDpaCk4qdkrEa7VadQ/o.jpg","is_closed":false,"url":"https://www.yelp.com/biz/dennys-bloomington-14?adjust_creative=eL75PEDehXcsxUnhLGP6HA&utm_campaign=yelp_api_v3&utm_medium=api_v3_business_search&utm_source=eL75PEDehXcsxUnhLGP6HA","review_count":39,"categories":[{"alias":"breakfast_brunch","title":"Breakfast & Brunch"},{"alias":"diners","title":"Diners"},{"alias":"tradamerican","title":"American (Traditional)"}],"rating":3.5,"coordinates":{"latitude":40.47305274232997,"longitude":-88.95194870035084},"transactions":["delivery","pickup"],"price":"$","location":{"address1":"701 Eldorado Rd","address2":"","address3":"","city":"Bloomington","zip_code":"61704","country":"US","state":"IL","display_address":["701 Eldorado Rd","Bloomington, IL 61704"]},"phone":"+13096635251","display_phone":"(309) 663-5251","distance":75072.95268906056},{"id":"J_QV_p9tQAcDkXm3Tku-SQ","alias":"dennys-mattoon","name":"Denny's","image_url":"https://s3-media4.fl.yelpcdn.com/bphoto/mFG_qmn1D0inom0cgv-SVA/o.jpg","is_closed":false,"url":"https://www.yelp.com/biz/dennys-mattoon?adjust_creative=eL75PEDehXcsxUnhLGP6HA&utm_campaign=yelp_api_v3&utm_medium=api_v3_business_search&utm_source=eL75PEDehXcsxUnhLGP6HA","review_count":21,"categories":[{"alias":"diners","title":"Diners"},{"alias":"breakfast_brunch","title":"Breakfast & Brunch"},{"alias":"tradamerican","title":"American (Traditional)"}],"rating":3,"coordinates":{"latitude":39.48541,"longitude":-88.346399},"transactions":[],"price":"$","location":{"address1":"224 Richmond Ave E","address2":null,"address3":null,"city":"Mattoon","zip_code":"61938","country":"US","state":"IL","display_address":["224 Richmond Ave E","Mattoon, IL 61938"]},"phone":"+12172347234","display_phone":"(217) 234-7234","distance":70816.21863518},{"id":"dIZcPB3CtNjMn4O_p8QFxw","alias":"original-pancake-house-champaign","name":"Original Pancake House","image_url":"https://s3-media2.fl.yelpcdn.com/bphoto/1Fg205QHAiVBXx2JDOZYoA/o.jpg","is_closed":false,"url":"https://www.yelp.com/biz/original-pancake-house-champaign?adjust_creative=eL75PEDehXcsxUnhLGP6HA&utm_campaign=yelp_api_v3&utm_medium=api_v3_business_search&utm_source=eL75PEDehXcsxUnhLGP6HA","review_count":278,"categories":[{"alias":"breakfast_brunch","title":"Breakfast & Brunch"}],"rating":4.5,"coordinates":{"latitude":40.11246,"longitude":-88.278196},"transactions":["delivery","pickup"],"price":"$$","location":{"address1":"1909 W Springfield Ave","address2":"Ste B","address3":"","city":"Champaign","zip_code":"61821","country":"US","state":"IL","display_address":["1909 W Springfield Ave","Ste B","Champaign, IL 61821"]},"phone":"+12173528866","display_phone":"(217) 352-8866","distance":6361.3646481460455},{"id":"L2c-qKZWumCmOCR-dqBLrg","alias":"seven-saints-champaign","name":"Seven Saints","image_url":"https://s3-media4.fl.yelpcdn.com/bphoto/gunb0O2A1bVe6qUtc0Y0iw/o.jpg","is_closed":false,"url":"https://www.yelp.com/biz/seven-saints-champaign?adjust_creative=eL75PEDehXcsxUnhLGP6HA&utm_campaign=yelp_api_v3&utm_medium=api_v3_business_search&utm_source=eL75PEDehXcsxUnhLGP6HA","review_count":456,"categories":[{"alias":"tradamerican","title":"American (Traditional)"},{"alias":"pubs","title":"Pubs"},{"alias":"lounges","title":"Lounges"}],"rating":4,"coordinates":{"latitude":40.1165558776,"longitude":-88.2420127724},"transactions":["delivery"],"price":"$$","location":{"address1":"32 E Chester St","address2":"","address3":"","city":"Champaign","zip_code":"61820","country":"US","state":"IL","display_address":["32 E Chester St","Champaign, IL 61820"]},"phone":"+12173517775","display_phone":"(217) 351-7775","distance":3311.665203950189},{"id":"o13eH93qmWVNFZogkjhd9w","alias":"the-courier-cafe-urbana-2","name":"The Courier Caf√©","image_url":"https://s3-media2.fl.yelpcdn.com/bphoto/PTQL6pMIdDnrSuaGKbcpiQ/o.jpg","is_closed":false,"url":"https://www.yelp.com/biz/the-courier-cafe-urbana-2?adjust_creative=eL75PEDehXcsxUnhLGP6HA&utm_campaign=yelp_api_v3&utm_medium=api_v3_business_search&utm_source=eL75PEDehXcsxUnhLGP6HA","review_count":422,"categories":[{"alias":"breakfast_brunch","title":"Breakfast & Brunch"},{"alias":"cafes","title":"Cafes"},{"alias":"burgers","title":"Burgers"}],"rating":4,"coordinates":{"latitude":40.112956349883234,"longitude":-88.20903756885573},"transactions":["delivery","pickup"],"price":"$","location":{"address1":"111 N Race St","address2":"","address3":"","city":"Urbana","zip_code":"61801","country":"US","state":"IL","display_address":["111 N Race St","Urbana, IL 61801"]},"phone":"+12173281811","display_phone":"(217) 328-1811","distance":480.76610604246025},{"id":"RnGG5bAz4nTPo_Ui99Kzbg","alias":"le-peep-restaurant-champaign","name":"Le Peep Restaurant","image_url":"https://s3-media4.fl.yelpcdn.com/bphoto/b3jKbN8CjURWNzdZsMfd3Q/o.jpg","is_closed":false,"url":"https://www.yelp.com/biz/le-peep-restaurant-champaign?adjust_creative=eL75PEDehXcsxUnhLGP6HA&utm_campaign=yelp_api_v3&utm_medium=api_v3_business_search&utm_source=eL75PEDehXcsxUnhLGP6HA","review_count":142,"categories":[{"alias":"breakfast_brunch","title":"Breakfast & Brunch"},{"alias":"coffee","title":"Coffee & Tea"},{"alias":"tradamerican","title":"American (Traditional)"}],"rating":3.5,"coordinates":{"latitude":40.086871,"longitude":-88.248177},"transactions":["delivery"],"price":"$$","location":{"address1":"2209 S Neil St","address2":"","address3":"","city":"Champaign","zip_code":"61820","country":"US","state":"IL","display_address":["2209 S Neil St","Champaign, IL 61820"]},"phone":"+12173527599","display_phone":"(217) 352-7599","distance":4772.457125861835},{"id":"f_CDR6H4QL1K3SeaBe7r3g","alias":"sammys-pancake-house-champaign","name":"Sammy's Pancake House","image_url":"https://s3-media1.fl.yelpcdn.com/bphoto/G9nmIRb_ij9ZzJ42K5fdgg/o.jpg","is_closed":false,"url":"https://www.yelp.com/biz/sammys-pancake-house-champaign?adjust_creative=eL75PEDehXcsxUnhLGP6HA&utm_campaign=yelp_api_v3&utm_medium=api_v3_business_search&utm_source=eL75PEDehXcsxUnhLGP6HA","review_count":77,"categories":[{"alias":"breakfast_brunch","title":"Breakfast & Brunch"}],"rating":3.5,"coordinates":{"latitude":40.12839,"longitude":-88.27655},"transactions":["delivery"],"price":"$","location":{"address1":"1206 N Mattis Ave","address2":"","address3":"","city":"Champaign","zip_code":"61821","country":"US","state":"IL","display_address":["1206 N Mattis Ave","Champaign, IL 61821"]},"phone":"+12173553403","display_phone":"(217) 355-3403","distance":6474.554641294969},{"id":"hP2DOm7E2H4P7MOS7XN_SQ","alias":"hamilton-walkers-champaign","name":"Hamilton Walker's","image_url":"https://s3-media3.fl.yelpcdn.com/bphoto/APawicsyZbym8NNI1-04WA/o.jpg","is_closed":false,"url":"https://www.yelp.com/biz/hamilton-walkers-champaign?adjust_creative=eL75PEDehXcsxUnhLGP6HA&utm_campaign=yelp_api_v3&utm_medium=api_v3_business_search&utm_source=eL75PEDehXcsxUnhLGP6HA","review_count":219,"categories":[{"alias":"seafood","title":"Seafood"},{"alias":"steak","title":"Steakhouses"},{"alias":"bars","title":"Bars"}],"rating":3.5,"coordinates":{"latitude":40.117491,"longitude":-88.243766},"transactions":["delivery","pickup"],"price":"$$$","location":{"address1":"201 N Neil St","address2":null,"address3":"","city":"Champaign","zip_code":"61820","country":"US","state":"IL","display_address":["201 N Neil St","Champaign, IL 61820"]},"phone":"+12173500363","display_phone":"(217) 350-0363","distance":3473.8748132569594},{"id":"2wNI-81CncuC21xr92anTA","alias":"urbana-garden-family-restaurant-urbana","name":"Urbana Garden Family Restaurant","image_url":"https://s3-media1.fl.yelpcdn.com/bphoto/lkG7ODsxiDG1W45FjB3P9w/o.jpg","is_closed":false,"url":"https://www.yelp.com/biz/urbana-garden-family-restaurant-urbana?adjust_creative=eL75PEDehXcsxUnhLGP6HA&utm_campaign=yelp_api_v3&utm_medium=api_v3_business_search&utm_source=eL75PEDehXcsxUnhLGP6HA","review_count":79,"categories":[{"alias":"diners","title":"Diners"},{"alias":"tradamerican","title":"American (Traditional)"}],"rating":3.5,"coordinates":{"latitude":40.1329664,"longitude":-88.2188183},"transactions":["delivery","pickup"],"price":"$","location":{"address1":"810 W Killarney St","address2":"","address3":"","city":"Urbana","zip_code":"61801","country":"US","state":"IL","display_address":["810 W Killarney St","Urbana, IL 61801"]},"phone":"+12173281514","display_phone":"(217) 328-1514","distance":2604.7973387058487},{"id":"J5U-nbhKSnnX7DJGT6QELg","alias":"the-apple-dumplin-urbana","name":"The Apple Dumplin'","image_url":"https://s3-media4.fl.yelpcdn.com/bphoto/30FknCfWz2pCtbP2ERJmmw/o.jpg","is_closed":false,"url":"https://www.yelp.com/biz/the-apple-dumplin-urbana?adjust_creative=eL75PEDehXcsxUnhLGP6HA&utm_campaign=yelp_api_v3&utm_medium=api_v3_business_search&utm_source=eL75PEDehXcsxUnhLGP6HA","review_count":69,"categories":[{"alias":"tradamerican","title":"American (Traditional)"},{"alias":"breakfast_brunch","title":"Breakfast & Brunch"}],"rating":3.5,"coordinates":{"latitude":40.13358798907504,"longitude":-88.16251003539328},"transactions":["delivery"],"price":"$","location":{"address1":"2014 N High Cross Rd","address2":"","address3":"","city":"Urbana","zip_code":"61802","country":"US","state":"IL","display_address":["2014 N High Cross Rd","Urbana, IL 61802"]},"phone":"+12173440076","display_phone":"(217) 344-0076","distance":4178.913624153346},{"id":"dn9lwYUxmhs_mLKPu7L25Q","alias":"big-grove-tavern-champaign","name":"Big Grove Tavern","image_url":"https://s3-media1.fl.yelpcdn.com/bphoto/SMT2WTemOelrRSVmZJNGeQ/o.jpg","is_closed":false,"url":"https://www.yelp.com/biz/big-grove-tavern-champaign?adjust_creative=eL75PEDehXcsxUnhLGP6HA&utm_campaign=yelp_api_v3&utm_medium=api_v3_business_search&utm_source=eL75PEDehXcsxUnhLGP6HA","review_count":439,"categories":[{"alias":"newamerican","title":"American (New)"},{"alias":"pubs","title":"Pubs"},{"alias":"breakfast_brunch","title":"Breakfast & Brunch"}],"rating":3.5,"coordinates":{"latitude":40.1183809,"longitude":-88.2429963},"transactions":["delivery"],"price":"$$","location":{"address1":"1 E Main St","address2":"Ste 101","address3":"","city":"Champaign","zip_code":"61820","country":"US","state":"IL","display_address":["1 E Main St","Ste 101","Champaign, IL 61820"]},"phone":"+12172393505","display_phone":"(217) 239-3505","distance":3425.9491290915607},{"id":"wsuzuLD3KV7L8oMinLCI0A","alias":"merry-anns-diner-champaign","name":"Merry Ann's Diner","image_url":"https://s3-media3.fl.yelpcdn.com/bphoto/BNpEaAwxs4mdeftexKBb5g/o.jpg","is_closed":false,"url":"https://www.yelp.com/biz/merry-anns-diner-champaign?adjust_creative=eL75PEDehXcsxUnhLGP6HA&utm_campaign=yelp_api_v3&utm_medium=api_v3_business_search&utm_source=eL75PEDehXcsxUnhLGP6HA","review_count":103,"categories":[{"alias":"diners","title":"Diners"},{"alias":"breakfast_brunch","title":"Breakfast & Brunch"},{"alias":"tradamerican","title":"American (Traditional)"}],"rating":3.5,"coordinates":{"latitude":40.0984525131702,"longitude":-88.2442462116229},"transactions":["delivery","pickup"],"price":"$","location":{"address1":"1510 S Neil St","address2":"","address3":"","city":"Champaign","zip_code":"61820","country":"US","state":"IL","display_address":["1510 S Neil St","Champaign, IL 61820"]},"phone":"+12173525399","display_phone":"(217) 352-5399","distance":3819.9794599315082},{"id":"YomtTIvJ6FE3UkaNAGRgCw","alias":"reliable-mechanical-champaign-2","name":"Reliable Mechanical","image_url":"https://s3-media1.fl.yelpcdn.com/bphoto/f84EjRdwnpwi3of221peag/o.jpg","is_closed":false,"url":"https://www.yelp.com/biz/reliable-mechanical-champaign-2?adjust_creative=eL75PEDehXcsxUnhLGP6HA&utm_campaign=yelp_api_v3&utm_medium=api_v3_business_search&utm_source=eL75PEDehXcsxUnhLGP6HA","review_count":3,"categories":[{"alias":"hvac","title":"Heating & Air Conditioning/HVAC"},{"alias":"plumbing","title":"Plumbing"}],"rating":3.5,"coordinates":{"latitude":40.148065,"longitude":-88.271099},"transactions":[],"location":{"address1":"1411 Interstate Dr","address2":"","address3":"","city":"Champaign","zip_code":"61820","country":"US","state":"IL","display_address":["1411 Interstate Dr","Champaign, IL 61820"]},"phone":"+12173561841","display_phone":"(217) 356-1841","distance":6969.525389412829},{"id":"dEKnEqm6Q44copoadiT8Iw","alias":"perkins-restaurant-and-bakery-urbana","name":"Perkins Restaurant & Bakery","image_url":"https://s3-media2.fl.yelpcdn.com/bphoto/IDVthDkBZKUfj8j_x2h1Xg/o.jpg","is_closed":false,"url":"https://www.yelp.com/biz/perkins-restaurant-and-bakery-urbana?adjust_creative=eL75PEDehXcsxUnhLGP6HA&utm_campaign=yelp_api_v3&utm_medium=api_v3_business_search&utm_source=eL75PEDehXcsxUnhLGP6HA","review_count":80,"categories":[{"alias":"bakeries","title":"Bakeries"},{"alias":"tradamerican","title":"American (Traditional)"}],"rating":2.5,"coordinates":{"latitude":40.1168,"longitude":-88.22542},"transactions":["delivery","pickup"],"price":"$$","location":{"address1":"1214 W University Ave","address2":"","address3":"","city":"Urbana","zip_code":"61801","country":"US","state":"IL","display_address":["1214 W University Ave","Urbana, IL 61801"]},"phone":"+12175607347","display_phone":"(217) 560-7347","distance":1920.6174508352049},{"id":"PgMt7JtwUB-QUoRZAbwUng","alias":"chilis-champaign-champaign","name":"Chili's - Champaign","image_url":"https://s3-media4.fl.yelpcdn.com/bphoto/oziKzk1o83wMkXmza5qwSQ/o.jpg","is_closed":false,"url":"https://www.yelp.com/biz/chilis-champaign-champaign?adjust_creative=eL75PEDehXcsxUnhLGP6HA&utm_campaign=yelp_api_v3&utm_medium=api_v3_business_search&utm_source=eL75PEDehXcsxUnhLGP6HA","review_count":72,"categories":[{"alias":"tradamerican","title":"American (Traditional)"},{"alias":"bars","title":"Bars"},{"alias":"tex-mex","title":"Tex-Mex"}],"rating":2.5,"coordinates":{"latitude":40.1390113830566,"longitude":-88.2585754394531},"transactions":["pickup","delivery"],"price":"$$","location":{"address1":"1905 N Prospect Ave","address2":"","address3":"","city":"Champaign","zip_code":"61822","country":"US","state":"IL","display_address":["1905 N Prospect Ave","Champaign, IL 61822"]},"phone":"+12173982161","display_phone":"(217) 398-2161","distance":5529.464117602007},{"id":"5uvf3QpmrdU2aiqmF4278A","alias":"bob-evans-champaign","name":"Bob Evans","image_url":"https://s3-media2.fl.yelpcdn.com/bphoto/62U2N5ZHhOfbFrhwflnBXg/o.jpg","is_closed":false,"url":"https://www.yelp.com/biz/bob-evans-champaign?adjust_creative=eL75PEDehXcsxUnhLGP6HA&utm_campaign=yelp_api_v3&utm_medium=api_v3_business_search&utm_source=eL75PEDehXcsxUnhLGP6HA","review_count":62,"categories":[{"alias":"breakfast_brunch","title":"Breakfast & Brunch"},{"alias":"tradamerican","title":"American (Traditional)"},{"alias":"comfortfood","title":"Comfort Food"}],"rating":2.5,"coordinates":{"latitude":40.1375355953759,"longitude":-88.2444405555725},"transactions":["delivery","pickup"],"price":"$$","location":{"address1":"1813 N Neil St","address2":"","address3":"","city":"Champaign","zip_code":"61820","country":"US","state":"IL","display_address":["1813 N Neil St","Champaign, IL 61820"]},"phone":"+12173561006","display_phone":"(217) 356-1006","distance":4448.629157340448},{"id":"APBwFAKDpUWdx1kkuaJhEw","alias":"dennis-hvac-champaign-4","name":"Dennis HVAC","image_url":"https://s3-media4.fl.yelpcdn.com/bphoto/EasPHeMBmRSTPXJzsi6bTg/o.jpg","is_closed":false,"url":"https://www.yelp.com/biz/dennis-hvac-champaign-4?adjust_creative=eL75PEDehXcsxUnhLGP6HA&utm_campaign=yelp_api_v3&utm_medium=api_v3_business_search&utm_source=eL75PEDehXcsxUnhLGP6HA","review_count":2,"categories":[{"alias":"hvac","title":"Heating & Air Conditioning/HVAC"}],"rating":3,"coordinates":{"latitude":40.12795,"longitude":-88.25664},"transactions":[],"location":{"address1":"813 Dennison Dr","address2":"","address3":"","city":"Champaign","zip_code":"61820","country":"US","state":"IL","display_address":["813 Dennison Dr","Champaign, IL 61820"]},"phone":"+12173985977","display_phone":"(217) 398-5977","distance":4839.749958922882}],"total":39,"region":{"center":{"longitude":-88.2033920288086,"latitude":40.112727532770165}}}