{"businesses":[{"id":"i_t8WTwztuHweRqQ89hmuQ","alias":"panda-express-champaign-2","name":"Panda Express","image_url":"https://s3-media1.fl.yelpcdn.com/bphoto/u1eDMswaNL6pk2hI8KcMmA/o.jpg","is_closed":false,"url":"https://www.yelp.com/biz/panda-express-champaign-2?adjust_creative=eL75PEDehXcsxUnhLGP6HA&utm_campaign=yelp_api_v3&utm_medium=api_v3_business_search&utm_source=eL75PEDehXcsxUnhLGP6HA","review_count":35,"categories":[{"alias":"chinese","title":"Chinese"},{"alias":"hotdogs","title":"Fast Food"}],"rating":3.5,"coordinates":{"latitude":40.1460326345983,"longitude":-88.2585361670667},"transactions":["pickup","delivery"],"price":"$","location":{"address1":"2521 N. Prospect Ave","address2":null,"address3":null,"city":"Champaign","zip_code":"61822","country":"US","state":"IL","display_address":["2521 N. Prospect Ave","Champaign, IL 61822"]},"phone":"+12173550774","display_phone":"(217) 355-0774","distance":5974.508159363582},{"id":"MA5R-mV6ljRM1MK6Mdiv5g","alias":"panda-express-champaign-4","name":"Panda Express","image_url":"https://s3-media1.fl.yelpcdn.com/bphoto/ilP2P_BO7B4EttaufRqKUQ/o.jpg","is_closed":false,"url":"https://www.yelp.com/biz/panda-express-champaign-4?adjust_creative=eL75PEDehXcsxUnhLGP6HA&utm_campaign=yelp_api_v3&utm_medium=api_v3_business_search&utm_source=eL75PEDehXcsxUnhLGP6HA","review_count":11,"categories":[{"alias":"hotdogs","title":"Fast Food"},{"alias":"chinese","title":"Chinese"}],"rating":3,"coordinates":{"latitude":40.142039,"longitude":-88.244042},"transactions":["delivery"],"price":"$","location":{"address1":"2000 N. Neil St","address2":"712","address3":"","city":"Champaign","zip_code":"61820","country":"US","state":"IL","display_address":["2000 N. Neil St","712","Champaign, IL 61820"]},"phone":"+12173567700","display_phone":"(217) 356-7700","distance":4750.533813616538},{"id":"AQ76VSVrSPajc2qFZDmzeg","alias":"panda-express-urbana-2","name":"Panda Express","image_url":"https://s3-media1.fl.yelpcdn.com/bphoto/oxzOUjlc1jPi1L1KC2bPLQ/o.jpg","is_closed":false,"url":"https://www.yelp.com/biz/panda-express-urbana-2?adjust_creative=eL75PEDehXcsxUnhLGP6HA&utm_campaign=yelp_api_v3&utm_medium=api_v3_business_search&utm_source=eL75PEDehXcsxUnhLGP6HA","review_count":10,"categories":[{"alias":"chinese","title":"Chinese"},{"alias":"hotdogs","title":"Fast Food"}],"rating":3,"coordinates":{"latitude":40.11678,"longitude":-88.20656},"transactions":["pickup","delivery"],"location":{"address1":"106 E. University Ave.","address2":null,"address3":null,"city":"Urbana","zip_code":"61801","country":"US","state":"IL","display_address":["106 E. University Ave.","Urbana, IL 61801"]},"phone":"+12173671371","display_phone":"(217) 367-1371","distance":535.4868495176869},{"id":"tQaIWc9qeiB1IU163LKlAw","alias":"panda-express-champaign-5","name":"Panda Express","image_url":"https://s3-media3.fl.yelpcdn.com/bphoto/cW8WGVlI2mEh2TGyaPIs8A/o.jpg","is_closed":false,"url":"https://www.yelp.com/biz/panda-express-champaign-5?adjust_creative=eL75PEDehXcsxUnhLGP6HA&utm_campaign=yelp_api_v3&utm_medium=api_v3_business_search&utm_source=eL75PEDehXcsxUnhLGP6HA","review_count":24,"categories":[{"alias":"chinese","title":"Chinese"},{"alias":"hotdogs","title":"Fast Food"}],"rating":3,"coordinates":{"latitude":40.1105984,"longitude":-88.2290979},"transactions":["pickup","delivery"],"price":"$$","location":{"address1":"627 S Wright St.","address2":"","address3":"","city":"Champaign","zip_code":"61820","country":"US","state":"IL","display_address":["627 S Wright St.","Champaign, IL 61820"]},"phone":"+12173443629","display_phone":"(217) 344-3629","distance":2198.827911278957},{"id":"UAOWPR0Ri72BqhGGzdvl0Q","alias":"panda-express-urbana","name":"Panda Express","image_url":"","is_closed":false,"url":"https://www.yelp.com/biz/panda-express-urbana?adjust_creative=eL75PEDehXcsxUnhLGP6HA&utm_campaign=yelp_api_v3&utm_medium=api_v3_business_search&utm_source=eL75PEDehXcsxUnhLGP6HA","review_count":3,"categories":[{"alias":"chinese","title":"Chinese"},{"alias":"hotdogs","title":"Fast Food"}],"rating":1.5,"coordinates":{"latitude":40.11678,"longitude":-88.20656},"transactions":[],"location":{"address1":"106 E University Ave","address2":null,"address3":null,"city":"Urbana","zip_code":"61801","country":"US","state":"IL","display_address":["106 E University Ave","Urbana, IL 61801"]},"phone":"+12173671371","display_phone":"(217) 367-1371","distance":535.4868495194997},{"id":"t_yiQnxUDdPPCN2z4QyezA","alias":"golden-harbor-authentic-chinese-cuisine-champaign","name":"Golden Harbor Authentic Chinese Cuisine","image_url":"https://s3-media3.fl.yelpcdn.com/bphoto/T9xKcRD0s2l4X-yZpBXG2A/o.jpg","is_closed":false,"url":"https://www.yelp.com/biz/golden-harbor-authentic-chinese-cuisine-champaign?adjust_creative=eL75PEDehXcsxUnhLGP6HA&utm_campaign=yelp_api_v3&utm_medium=api_v3_business_search&utm_source=eL75PEDehXcsxUnhLGP6HA","review_count":509,"categories":[{"alias":"chinese","title":"Chinese"},{"alias":"taiwanese","title":"Taiwanese"}],"rating":4.5,"coordinates":{"latitude":40.11127,"longitude":-88.2443},"transactions":["pickup","delivery"],"price":"$$","location":{"address1":"505 S Neil St","address2":null,"address3":"","city":"Champaign","zip_code":"61820","country":"US","state":"IL","display_address":["505 S Neil St","Champaign, IL 61820"]},"phone":"+12173988988","display_phone":"(217) 398-8988","distance":3470.288449943565},{"id":"gnqHyA6gY2-m9S-FKt6Xqw","alias":"cravings-champaign-2","name":"Cravings","image_url":"https://s3-media2.fl.yelpcdn.com/bphoto/e3v7X7YG_TthHJ9pjpLvFg/o.jpg","is_closed":false,"url":"https://www.yelp.com/biz/cravings-champaign-2?adjust_creative=eL75PEDehXcsxUnhLGP6HA&utm_campaign=yelp_api_v3&utm_medium=api_v3_business_search&utm_source=eL75PEDehXcsxUnhLGP6HA","review_count":196,"categories":[{"alias":"chinese","title":"Chinese"},{"alias":"panasian","title":"Pan Asian"}],"rating":4,"coordinates":{"latitude":40.111220370343,"longitude":-88.229060407463},"transactions":["pickup"],"price":"$","location":{"address1":"603 S Wright St","address2":null,"address3":"","city":"Champaign","zip_code":"61820","country":"US","state":"IL","display_address":["603 S Wright St","Champaign, IL 61820"]},"phone":"+12173282538","display_phone":"(217) 328-2538","distance":2189.270868312803},{"id":"a39B-BfbCipNkNH7vwCfug","alias":"mid-summer-lounge-champaign","name":"Mid-Summer Lounge","image_url":"https://s3-media2.fl.yelpcdn.com/bphoto/q_OkCd-im8sD8KL7jexnxQ/o.jpg","is_closed":false,"url":"https://www.yelp.com/biz/mid-summer-lounge-champaign?adjust_creative=eL75PEDehXcsxUnhLGP6HA&utm_campaign=yelp_api_v3&utm_medium=api_v3_business_search&utm_source=eL75PEDehXcsxUnhLGP6HA","review_count":94,"categories":[{"alias":"chinese","title":"Chinese"},{"alias":"asianfusion","title":"Asian Fusion"},{"alias":"noodles","title":"Noodles"}],"rating":4,"coordinates":{"latitude":40.1101851,"longitude":-88.2294518},"transactions":["pickup","delivery"],"price":"$$","location":{"address1":"623 E Green St","address2":"","address3":null,"city":"Champaign","zip_code":"61820","country":"US","state":"IL","display_address":["623 E Green St","Champaign, IL 61820"]},"phone":"+12176071434","display_phone":"(217) 607-1434","distance":2235.5999552422154},{"id":"jKxES7iLV63H_PfyGVGIDw","alias":"lai-lai-wok-champaign","name":"Lai Lai Wok","image_url":"https://s3-media1.fl.yelpcdn.com/bphoto/GqLXh8psto9BuuAlyDBC3w/o.jpg","is_closed":false,"url":"https://www.yelp.com/biz/lai-lai-wok-champaign?adjust_creative=eL75PEDehXcsxUnhLGP6HA&utm_campaign=yelp_api_v3&utm_medium=api_v3_business_search&utm_source=eL75PEDehXcsxUnhLGP6HA","review_count":138,"categories":[{"alias":"chinese","title":"Chinese"}],"rating":4,"coordinates":{"latitude":40.110391874759756,"longitude":-88.23334570232481},"transactions":["pickup","delivery"],"price":"$$","location":{"address1":"402 E Green St","address2":"Ste A","address3":"","city":"Champaign","zip_code":"61820","country":"US","state":"IL","display_address":["402 E Green St","Ste A","Champaign, IL 61820"]},"phone":"+12173281888","display_phone":"(217) 328-1888","distance":2560.490848410334},{"id":"z3hD4GX5gSJtuqNhN-o2cg","alias":"i-wok-savoy","name":"I Wok","image_url":"https://s3-media1.fl.yelpcdn.com/bphoto/lJvQt8iFHfiw1_SMWiupyA/o.jpg","is_closed":false,"url":"https://www.yelp.com/biz/i-wok-savoy?adjust_creative=eL75PEDehXcsxUnhLGP6HA&utm_campaign=yelp_api_v3&utm_medium=api_v3_business_search&utm_source=eL75PEDehXcsxUnhLGP6HA","review_count":58,"categories":[{"alias":"chinese","title":"Chinese"}],"rating":4,"coordinates":{"latitude":40.0590115158189,"longitude":-88.2522375155313},"transactions":["pickup","delivery"],"price":"$","location":{"address1":"113 Calvin St","address2":"","address3":"","city":"Savoy","zip_code":"61874","country":"US","state":"IL","display_address":["113 Calvin St","Savoy, IL 61874"]},"phone":"+12173519888","display_phone":"(217) 351-9888","distance":7276.237009570457},{"id":"YERn2kltXVj9936i6T4Q8w","alias":"big-j-j-fish-and-chicken-champaign","name":"Big J J Fish & Chicken","image_url":"https://s3-media2.fl.yelpcdn.com/bphoto/gWfuE0BcDffUwMLlORR5Mw/o.jpg","is_closed":false,"url":"https://www.yelp.com/biz/big-j-j-fish-and-chicken-champaign?adjust_creative=eL75PEDehXcsxUnhLGP6HA&utm_campaign=yelp_api_v3&utm_medium=api_v3_business_search&utm_source=eL75PEDehXcsxUnhLGP6HA","review_count":61,"categories":[{"alias":"chicken_wings","title":"Chicken Wings"},{"alias":"fishnchips","title":"Fish & Chips"},{"alias":"hotdogs","title":"Fast Food"}],"rating":4,"coordinates":{"latitude":40.12698,"longitude":-88.23862},"transactions":["pickup","delivery"],"price":"$","location":{"address1":"1114 N Market St","address2":null,"address3":null,"city":"Champaign","zip_code":"61820","country":"US","state":"IL","display_address":["1114 N Market St","Champaign, IL 61820"]},"phone":"+12173514005","display_phone":"(217) 351-4005","distance":3386.6995618556957},{"id":"QdganL5AW9E_fNoRVroLig","alias":"golden-wok-champaign","name":"Golden Wok","image_url":"https://s3-media3.fl.yelpcdn.com/bphoto/Q0AVTE9_kH737AlND0Sf4g/o.jpg","is_closed":false,"url":"https://www.yelp.com/biz/golden-wok-champaign?adjust_creative=eL75PEDehXcsxUnhLGP6HA&utm_campaign=yelp_api_v3&utm_medium=api_v3_business_search&utm_source=eL75PEDehXcsxUnhLGP6HA","review_count":138,"categories":[{"alias":"thai","title":"Thai"},{"alias":"chinese","title":"Chinese"}],"rating":4,"coordinates":{"latitude":40.1160545349121,"longitude":-88.232780456543},"transactions":["pickup","delivery"],"price":"$","location":{"address1":"405 E University Ave","address2":"","address3":"","city":"Champaign","zip_code":"61820","country":"US","state":"IL","display_address":["405 E University Ave","Champaign, IL 61820"]},"phone":"+12173568383","display_phone":"(217) 356-8383","distance":2532.812307546695},{"id":"ejdBoVvEdn5fdycuJRen8Q","alias":"first-wok-urbana","name":"First Wok","image_url":"https://s3-media3.fl.yelpcdn.com/bphoto/7x56-AO9G_TQggVAh3337Q/o.jpg","is_closed":false,"url":"https://www.yelp.com/biz/first-wok-urbana?adjust_creative=eL75PEDehXcsxUnhLGP6HA&utm_campaign=yelp_api_v3&utm_medium=api_v3_business_search&utm_source=eL75PEDehXcsxUnhLGP6HA","review_count":45,"categories":[{"alias":"chinese","title":"Chinese"}],"rating":4,"coordinates":{"latitude":40.0964994728565,"longitude":-88.1907360255718},"transactions":["delivery"],"price":"$","location":{"address1":"1805 Philo Rd","address2":"","address3":"","city":"Urbana","zip_code":"61802","country":"US","state":"IL","display_address":["1805 Philo Rd","Urbana, IL 61802"]},"phone":"+12173444500","display_phone":"(217) 344-4500","distance":2064.335455770336},{"id":"SUktrYdNQD8k2vvkM4OpfA","alias":"peking-garden-restaurant-champaign","name":"Peking Garden Restaurant","image_url":"https://s3-media2.fl.yelpcdn.com/bphoto/jSpIRdy7MqjgnNfNUT3j0g/o.jpg","is_closed":false,"url":"https://www.yelp.com/biz/peking-garden-restaurant-champaign?adjust_creative=eL75PEDehXcsxUnhLGP6HA&utm_campaign=yelp_api_v3&utm_medium=api_v3_business_search&utm_source=eL75PEDehXcsxUnhLGP6HA","review_count":106,"categories":[{"alias":"chinese","title":"Chinese"}],"rating":3.5,"coordinates":{"latitude":40.1178481689476,"longitude":-88.2451191659442},"transactions":["pickup","delivery"],"price":"$$","location":{"address1":"206 N Randolph St","address2":"","address3":"","city":"Champaign","zip_code":"61820","country":"US","state":"IL","display_address":["206 N Randolph St","Champaign, IL 61820"]},"phone":"+12173558888","display_phone":"(217) 355-8888","distance":3593.70961418221},{"id":"Igr5Id1TWyM3JLsY_td9_w","alias":"jimmy-johns-urbana","name":"Jimmy John's","image_url":"https://s3-media4.fl.yelpcdn.com/bphoto/R5Pd_DGRdtmdgw1IIl-bNw/o.jpg","is_closed":false,"url":"https://www.yelp.com/biz/jimmy-johns-urbana?adjust_creative=eL75PEDehXcsxUnhLGP6HA&utm_campaign=yelp_api_v3&utm_medium=api_v3_business_search&utm_source=eL75PEDehXcsxUnhLGP6HA","review_count":31,"categories":[{"alias":"sandwiches","title":"Sandwiches"},{"alias":"delis","title":"Delis"},{"alias":"hotdogs","title":"Fast Food"}],"rating":4,"coordinates":{"latitude":40.1055014431618,"longitude":-88.219421923942},"transactions":[],"price":"$","location":{"address1":"807 S Lincoln Ave","address2":"","address3":"","city":"Urbana","zip_code":"61801","country":"US","state":"IL","display_address":["807 S Lincoln Ave","Urbana, IL 61801"]},"phone":"+12173283100","display_phone":"(217) 328-3100","distance":1582.4202939707245},{"id":"vVdY2qDO7dkUrU8LXYZ1uA","alias":"green-jade-champaign","name":"Green Jade","image_url":"https://s3-media3.fl.yelpcdn.com/bphoto/Oja4oM21rBeK9E3YIr3hXw/o.jpg","is_closed":false,"url":"https://www.yelp.com/biz/green-jade-champaign?adjust_creative=eL75PEDehXcsxUnhLGP6HA&utm_campaign=yelp_api_v3&utm_medium=api_v3_business_search&utm_source=eL75PEDehXcsxUnhLGP6HA","review_count":42,"categories":[{"alias":"chinese","title":"Chinese"},{"alias":"seafood","title":"Seafood"}],"rating":4,"coordinates":{"latitude":40.0831798963329,"longitude":-88.2643084814066},"transactions":["delivery"],"price":"$","location":{"address1":"1109 W Windsor","address2":null,"address3":"","city":"Champaign","zip_code":"61821","country":"US","state":"IL","display_address":["1109 W Windsor","Champaign, IL 61821"]},"phone":"+12173555988","display_phone":"(217) 355-5988","distance":6135.3018134675585},{"id":"wCB9mquz6W0ZuO5pPZXeDg","alias":"lao-sze-chuan-chinese-restaurant-champaign","name":"Lao Sze Chuan Chinese Restaurant","image_url":"https://s3-media4.fl.yelpcdn.com/bphoto/yk0Cp4cNMcJbeZjBwk2ZOg/o.jpg","is_closed":false,"url":"https://www.yelp.com/biz/lao-sze-chuan-chinese-restaurant-champaign?adjust_creative=eL75PEDehXcsxUnhLGP6HA&utm_campaign=yelp_api_v3&utm_medium=api_v3_business_search&utm_source=eL75PEDehXcsxUnhLGP6HA","review_count":85,"categories":[{"alias":"szechuan","title":"Szechuan"}],"rating":3.5,"coordinates":{"latitude":40.11665,"longitude":-88.22948},"transactions":["pickup","delivery"],"price":"$$","location":{"address1":"608 E University Ave","address2":"Ste 105","address3":null,"city":"Champaign","zip_code":"61820","country":"US","state":"IL","display_address":["608 E University Ave","Ste 105","Champaign, IL 61820"]},"phone":"+12176890031","display_phone":"(217) 689-0031","distance":2284.6212718750717},{"id":"Qe8i6H81lE1BIdT6oPP86w","alias":"golden-wheat-champaign","name":"Golden Wheat","image_url":"https://s3-media3.fl.yelpcdn.com/bphoto/VaB5tPzwXii8PhgDHZl5LQ/o.jpg","is_closed":false,"url":"https://www.yelp.com/biz/golden-wheat-champaign?adjust_creative=eL75PEDehXcsxUnhLGP6HA&utm_campaign=yelp_api_v3&utm_medium=api_v3_business_search&utm_source=eL75PEDehXcsxUnhLGP6HA","review_count":13,"categories":[{"alias":"noodles","title":"Noodles"},{"alias":"chinese","title":"Chinese"},{"alias":"asianfusion","title":"Asian Fusion"}],"rating":4.5,"coordinates":{"latitude":40.11009023902665,"longitude":-88.2298011},"transactions":[],"location":{"address1":"611 E Green St","address2":"Ste A","address3":null,"city":"Champaign","zip_code":"61820","country":"US","state":"IL","display_address":["611 E Green St","Ste A","Champaign, IL 61820"]},"phone":"+12178190405","display_phone":"(217) 819-0405","distance":2264.9192938895235},{"id":"zswdqM8Av3KxVv9o7_6ORA","alias":"rainbow-garden-champaign-champaign","name":"Rainbow Garden Champaign","image_url":"https://s3-media1.fl.yelpcdn.com/bphoto/9OeYrFOORvHb2e0JhKGy4w/o.jpg","is_closed":false,"url":"https://www.yelp.com/biz/rainbow-garden-champaign-champaign?adjust_creative=eL75PEDehXcsxUnhLGP6HA&utm_campaign=yelp_api_v3&utm_medium=api_v3_business_search&utm_source=eL75PEDehXcsxUnhLGP6HA","review_count":100,"categories":[{"alias":"chinese","title":"Chinese"}],"rating":3.5,"coordinates":{"latitude":40.10045,"longitude":-88.2439799},"transactions":["pickup","delivery"],"price":"$$","location":{"address1":"1402 S Neil St","address2":"","address3":"","city":"Champaign","zip_code":"61820","country":"US","state":"IL","display_address":["1402 S Neil St","Champaign, IL 61820"]},"phone":"+12175772341","display_phone":"(217) 577-2341","distance":3707.0508080460845},{"id":"e88VWa9xdHmSFdMZne9eLQ","alias":"mandarin-wok-champaign","name":"Mandarin Wok","image_url":"https://s3-media1.fl.yelpcdn.com/bphoto/O5D9lXsQIqobSAr7wru7Qg/o.jpg","is_closed":false,"url":"https://www.yelp.com/biz/mandarin-wok-champaign?adjust_creative=eL75PEDehXcsxUnhLGP6HA&utm_campaign=yelp_api_v3&utm_medium=api_v3_business_search&utm_source=eL75PEDehXcsxUnhLGP6HA","review_count":67,"categories":[{"alias":"dimsum","title":"Dim Sum"},{"alias":"cantonese","title":"Cantonese"},{"alias":"comfortfood","title":"Comfort Food"}],"rating":3.5,"coordinates":{"latitude":40.110155,"longitude":-88.233079},"transactions":["pickup"],"price":"$","location":{"address1":"403 1/2 E Green St","address2":null,"address3":"","city":"Champaign","zip_code":"61820","country":"US","state":"IL","display_address":["403 1/2 E Green St","Champaign, IL 61820"]},"phone":"+12173845088","display_phone":"(217) 384-5088","distance":2540.7631099301025},{"id":"Qtv6iGDAHBmAKBgl40JgLw","alias":"blaze-pizza-champaign","name":"Blaze Pizza","image_url":"https://s3-media3.fl.yelpcdn.com/bphoto/EXbBW6zVKNsON5p5gz9yAA/o.jpg","is_closed":false,"url":"https://www.yelp.com/biz/blaze-pizza-champaign?adjust_creative=eL75PEDehXcsxUnhLGP6HA&utm_campaign=yelp_api_v3&utm_medium=api_v3_business_search&utm_source=eL75PEDehXcsxUnhLGP6HA","review_count":65,"categories":[{"alias":"salad","title":"Salad"},{"alias":"hotdogs","title":"Fast Food"},{"alias":"pizza","title":"Pizza"}],"rating":3.5,"coordinates":{"latitude":40.145838,"longitude":-88.2573865},"transactions":["pickup","delivery"],"price":"$","location":{"address1":"2506 N Prospect Ave","address2":null,"address3":null,"city":"Champaign","zip_code":"61822","country":"US","state":"IL","display_address":["2506 N Prospect Ave","Champaign, IL 61822"]},"phone":"","display_phone":"","distance":5884.559411939577},{"id":"xistlMeIIjG21z2SaWvfVQ","alias":"kung-fu-bbq-champaign","name":"Kung Fu BBQ","image_url":"https://s3-media1.fl.yelpcdn.com/bphoto/Fc5sGtp6Svq0HB92Oyqj8g/o.jpg","is_closed":false,"url":"https://www.yelp.com/biz/kung-fu-bbq-champaign?adjust_creative=eL75PEDehXcsxUnhLGP6HA&utm_campaign=yelp_api_v3&utm_medium=api_v3_business_search&utm_source=eL75PEDehXcsxUnhLGP6HA","review_count":59,"categories":[{"alias":"bbq","title":"Barbeque"},{"alias":"shanghainese","title":"Shanghainese"},{"alias":"hotpot","title":"Hot Pot"}],"rating":3.5,"coordinates":{"latitude":40.10933,"longitude":-88.23083},"transactions":["pickup","delivery"],"price":"$$","location":{"address1":"510 E John St","address2":null,"address3":"","city":"Champaign","zip_code":"61820","country":"US","state":"IL","display_address":["510 E John St","Champaign, IL 61820"]},"phone":"+12173551888","display_phone":"(217) 355-1888","distance":2365.482048623031},{"id":"sYf2auhosrx8trbyP9nGyw","alias":"dp-dough-champaign-2","name":"DP Dough","image_url":"https://s3-media1.fl.yelpcdn.com/bphoto/wi3O2jZ6EB4ZDeir39NO_g/o.jpg","is_closed":false,"url":"https://www.yelp.com/biz/dp-dough-champaign-2?adjust_creative=eL75PEDehXcsxUnhLGP6HA&utm_campaign=yelp_api_v3&utm_medium=api_v3_business_search&utm_source=eL75PEDehXcsxUnhLGP6HA","review_count":84,"categories":[{"alias":"pizza","title":"Pizza"},{"alias":"hotdogs","title":"Fast Food"}],"rating":3.5,"coordinates":{"latitude":40.1099604137696,"longitude":-88.2409975452471},"transactions":["pickup","delivery"],"price":"$","location":{"address1":"33 E Green St","address2":"","address3":"","city":"Champaign","zip_code":"61820","country":"US","state":"IL","display_address":["33 E Green St","Champaign, IL 61820"]},"phone":"+12173659663","display_phone":"(217) 365-9663","distance":3212.782242337284},{"id":"XODz0rilGYo6_xd5e7isOw","alias":"china-garden-urbana","name":"China Garden","image_url":"https://s3-media2.fl.yelpcdn.com/bphoto/ol1aP-7mz3vMELq2GiI5OA/o.jpg","is_closed":false,"url":"https://www.yelp.com/biz/china-garden-urbana?adjust_creative=eL75PEDehXcsxUnhLGP6HA&utm_campaign=yelp_api_v3&utm_medium=api_v3_business_search&utm_source=eL75PEDehXcsxUnhLGP6HA","review_count":33,"categories":[{"alias":"chinese","title":"Chinese"}],"rating":3.5,"coordinates":{"latitude":40.1126924,"longitude":-88.2048651},"transactions":["pickup","delivery"],"price":"$","location":{"address1":"114 N Vine St","address2":"","address3":"","city":"Urbana","zip_code":"61802","country":"US","state":"IL","display_address":["114 N Vine St","Urbana, IL 61802"]},"phone":"+12173676588","display_phone":"(217) 367-6588","distance":84.68713741220044},{"id":"7AlULGZI1pHt0imODsqdkg","alias":"potbelly-sandwich-shop-champaign","name":"Potbelly Sandwich Shop","image_url":"https://s3-media3.fl.yelpcdn.com/bphoto/92Hhl-8NHO_hbBUzDTOiCA/o.jpg","is_closed":false,"url":"https://www.yelp.com/biz/potbelly-sandwich-shop-champaign?adjust_creative=eL75PEDehXcsxUnhLGP6HA&utm_campaign=yelp_api_v3&utm_medium=api_v3_business_search&utm_source=eL75PEDehXcsxUnhLGP6HA","review_count":47,"categories":[{"alias":"sandwiches","title":"Sandwiches"},{"alias":"hotdogs","title":"Fast Food"},{"alias":"salad","title":"Salad"}],"rating":3.5,"coordinates":{"latitude":40.1100813693301,"longitude":-88.231874},"transactions":["pickup","delivery"],"price":"$","location":{"address1":"501 E Green St","address2":"","address3":"","city":"Champaign","zip_code":"61820","country":"US","state":"IL","display_address":["501 E Green St","Champaign, IL 61820"]},"phone":"+12173445601","display_phone":"(217) 344-5601","distance":2439.9426363510283},{"id":"-865Ps6xb3h1LP67JcQ3mA","alias":"rainbow-garden-urbana","name":"Rainbow Garden","image_url":"https://s3-media2.fl.yelpcdn.com/bphoto/2MRcHzYaW31YqUieBoJIPQ/o.jpg","is_closed":false,"url":"https://www.yelp.com/biz/rainbow-garden-urbana?adjust_creative=eL75PEDehXcsxUnhLGP6HA&utm_campaign=yelp_api_v3&utm_medium=api_v3_business_search&utm_source=eL75PEDehXcsxUnhLGP6HA","review_count":51,"categories":[{"alias":"chinese","title":"Chinese"},{"alias":"asianfusion","title":"Asian Fusion"}],"rating":3.5,"coordinates":{"latitude":40.11763,"longitude":-88.205579},"transactions":["pickup","delivery"],"price":"$$","location":{"address1":"202 E University Ave","address2":"Ste A","address3":"","city":"Urbana","zip_code":"61801","country":"US","state":"IL","display_address":["202 E University Ave","Ste A","Urbana, IL 61801"]},"phone":"+12173441888","display_phone":"(217) 344-1888","distance":575.9783528205908},{"id":"vsoEZauF4lrADIqCYXySFQ","alias":"chopstix-champaign-2","name":"Chopstix","image_url":"https://s3-media1.fl.yelpcdn.com/bphoto/PwIVK-pyOGenRzDaFI7cSw/o.jpg","is_closed":false,"url":"https://www.yelp.com/biz/chopstix-champaign-2?adjust_creative=eL75PEDehXcsxUnhLGP6HA&utm_campaign=yelp_api_v3&utm_medium=api_v3_business_search&utm_source=eL75PEDehXcsxUnhLGP6HA","review_count":93,"categories":[{"alias":"chinese","title":"Chinese"}],"rating":3,"coordinates":{"latitude":40.11052,"longitude":-88.23669},"transactions":["delivery"],"price":"$","location":{"address1":"202 E Green St","address2":"Ste 1","address3":"","city":"Champaign","zip_code":"61820","country":"US","state":"IL","display_address":["202 E Green St","Ste 1","Champaign, IL 61820"]},"phone":"+12173592222","display_phone":"(217) 359-2222","distance":2834.98315168204},{"id":"OrX0D6xwxmymxfzWRatT7Q","alias":"culvers-champaign","name":"Culver's","image_url":"https://s3-media2.fl.yelpcdn.com/bphoto/59Ahs0buz1Dq4dYn3SoPjg/o.jpg","is_closed":false,"url":"https://www.yelp.com/biz/culvers-champaign?adjust_creative=eL75PEDehXcsxUnhLGP6HA&utm_campaign=yelp_api_v3&utm_medium=api_v3_business_search&utm_source=eL75PEDehXcsxUnhLGP6HA","review_count":38,"categories":[{"alias":"burgers","title":"Burgers"},{"alias":"icecream","title":"Ice Cream & Frozen Yogurt"},{"alias":"hotdogs","title":"Fast Food"}],"rating":3.5,"coordinates":{"latitude":40.1378021240234,"longitude":-88.2596740722656},"transactions":["delivery"],"price":"$","location":{"address1":"903 W Marketview Dr","address2":"","address3":"","city":"Champaign","zip_code":"61822","country":"US","state":"IL","display_address":["903 W Marketview Dr","Champaign, IL 61822"]},"phone":"+12173568132","display_phone":"(217) 356-8132","distance":5538.323145509219},{"id":"xE4WM5ZvtBkFnojFUTQfqg","alias":"wienerschnitzel-champaign-3","name":"Wienerschnitzel","image_url":"https://s3-media2.fl.yelpcdn.com/bphoto/4aYz708zT8paSVZMZ6Dt7g/o.jpg","is_closed":false,"url":"https://www.yelp.com/biz/wienerschnitzel-champaign-3?adjust_creative=eL75PEDehXcsxUnhLGP6HA&utm_campaign=yelp_api_v3&utm_medium=api_v3_business_search&utm_source=eL75PEDehXcsxUnhLGP6HA","review_count":21,"categories":[{"alias":"hotdogs","title":"Fast Food"},{"alias":"hotdog","title":"Hot Dogs"},{"alias":"sandwiches","title":"Sandwiches"}],"rating":3.5,"coordinates":{"latitude":40.1132173067759,"longitude":-88.2831241065139},"transactions":["delivery"],"price":"$","location":{"address1":"2102 W Springfield Ave","address2":"","address3":"","city":"Champaign","zip_code":"61821","country":"US","state":"IL","display_address":["2102 W Springfield Ave","Champaign, IL 61821"]},"phone":"+12173785100","display_phone":"(217) 378-5100","distance":6780.5599216918845},{"id":"0Tiq09V_kdMFPa1cL6I0AA","alias":"culvers-champaign-2","name":"Culver's","image_url":"https://s3-media1.fl.yelpcdn.com/bphoto/M3bg1fxxMZIige8ccmKw_w/o.jpg","is_closed":false,"url":"https://www.yelp.com/biz/culvers-champaign-2?adjust_creative=eL75PEDehXcsxUnhLGP6HA&utm_campaign=yelp_api_v3&utm_medium=api_v3_business_search&utm_source=eL75PEDehXcsxUnhLGP6HA","review_count":30,"categories":[{"alias":"burgers","title":"Burgers"},{"alias":"icecream","title":"Ice Cream & Frozen Yogurt"},{"alias":"hotdogs","title":"Fast Food"}],"rating":3.5,"coordinates":{"latitude":40.0854530334473,"longitude":-88.2461395263672},"transactions":["delivery"],"price":"$","location":{"address1":"2302 S Neil St","address2":null,"address3":null,"city":"Champaign","zip_code":"61820","country":"US","state":"IL","display_address":["2302 S Neil St","Champaign, IL 61820"]},"phone":"+12173521699","display_phone":"(217) 352-1699","distance":4734.7540263559795},{"id":"m4DwPVxmFDQE_FnGIOa3cQ","alias":"sunny-china-buffet-urbana","name":"Sunny China Buffet","image_url":"https://s3-media4.fl.yelpcdn.com/bphoto/_iF5BBN0RVDR68_aBv8t-w/o.jpg","is_closed":false,"url":"https://www.yelp.com/biz/sunny-china-buffet-urbana?adjust_creative=eL75PEDehXcsxUnhLGP6HA&utm_campaign=yelp_api_v3&utm_medium=api_v3_business_search&utm_source=eL75PEDehXcsxUnhLGP6HA","review_count":23,"categories":[{"alias":"chinese","title":"Chinese"},{"alias":"buffets","title":"Buffets"}],"rating":3.5,"coordinates":{"latitude":40.0976799,"longitude":-88.19121},"transactions":["delivery"],"price":"$","location":{"address1":"1703 Philo Rd","address2":null,"address3":null,"city":"Urbana","zip_code":"61802","country":"US","state":"IL","display_address":["1703 Philo Rd","Urbana, IL 61802"]},"phone":"+12173678883","display_phone":"(217) 367-8883","distance":1971.5723553022938},{"id":"6aIsl5F05wcZSXGzXJn7nQ","alias":"shiquan-champaign-2","name":"Shiquan","image_url":"https://s3-media1.fl.yelpcdn.com/bphoto/i0SlWLSzXgKayTbkujvxiw/o.jpg","is_closed":false,"url":"https://www.yelp.com/biz/shiquan-champaign-2?adjust_creative=eL75PEDehXcsxUnhLGP6HA&utm_campaign=yelp_api_v3&utm_medium=api_v3_business_search&utm_source=eL75PEDehXcsxUnhLGP6HA","review_count":16,"categories":[{"alias":"szechuan","title":"Szechuan"}],"rating":4,"coordinates":{"latitude":40.110361,"longitude":-88.23596},"transactions":["pickup","delivery"],"location":{"address1":"212 E Green St","address2":"Ste 102","address3":"","city":"Champaign","zip_code":"61820","country":"US","state":"IL","display_address":["212 E Green St","Ste 102","Champaign, IL 61820"]},"phone":"+12176072635","display_phone":"(217) 607-2635","distance":2782.0809429218452},{"id":"VSkNNLEGTwVCjXTqQ4rCrg","alias":"freddys-frozen-custard-and-steakburgers-champaign","name":"Freddy's Frozen Custard & Steakburgers","image_url":"https://s3-media3.fl.yelpcdn.com/bphoto/1M-_EnYNjJzVkXEyZggNjw/o.jpg","is_closed":false,"url":"https://www.yelp.com/biz/freddys-frozen-custard-and-steakburgers-champaign?adjust_creative=eL75PEDehXcsxUnhLGP6HA&utm_campaign=yelp_api_v3&utm_medium=api_v3_business_search&utm_source=eL75PEDehXcsxUnhLGP6HA","review_count":44,"categories":[{"alias":"burgers","title":"Burgers"},{"alias":"icecream","title":"Ice Cream & Frozen Yogurt"},{"alias":"hotdogs","title":"Fast Food"}],"rating":3,"coordinates":{"latitude":40.1419593,"longitude":-88.2488584},"transactions":[],"price":"$","location":{"address1":"420 W Towncenter Blvd","address2":null,"address3":"","city":"Champaign","zip_code":"61822","country":"US","state":"IL","display_address":["420 W Towncenter Blvd","Champaign, IL 61822"]},"phone":"+12176071203","display_phone":"(217) 607-1203","distance":5167.879061281525},{"id":"XvhCPxnxDvISSsTpiKuo4w","alias":"chick-fil-a-champaign-2","name":"Chick-fil-A","image_url":"https://s3-media4.fl.yelpcdn.com/bphoto/OqzP_PTBCtiNpIHOzYrHWA/o.jpg","is_closed":false,"url":"https://www.yelp.com/biz/chick-fil-a-champaign-2?adjust_creative=eL75PEDehXcsxUnhLGP6HA&utm_campaign=yelp_api_v3&utm_medium=api_v3_business_search&utm_source=eL75PEDehXcsxUnhLGP6HA","review_count":32,"categories":[{"alias":"hotdogs","title":"Fast Food"},{"alias":"chickenshop","title":"Chicken Shop"},{"alias":"salad","title":"Salad"}],"rating":3,"coordinates":{"latitude":40.14386,"longitude":-88.2583998},"transactions":["delivery"],"price":"$$","location":{"address1":"2301 N Prospect Ave","address2":null,"address3":"","city":"Champaign","zip_code":"61822","country":"US","state":"IL","display_address":["2301 N Prospect Ave","Champaign, IL 61822"]},"phone":"+12173513094","display_phone":"(217) 351-3094","distance":5818.580695050287},{"id":"3BkMnrNVkG_szOP0wQlX5A","alias":"c-u-lala-noodle-champaign","name":"C-U LaLa Noodle","image_url":"https://s3-media3.fl.yelpcdn.com/bphoto/Ei0J61Z-GIcpYnZXZJVrVg/o.jpg","is_closed":false,"url":"https://www.yelp.com/biz/c-u-lala-noodle-champaign?adjust_creative=eL75PEDehXcsxUnhLGP6HA&utm_campaign=yelp_api_v3&utm_medium=api_v3_business_search&utm_source=eL75PEDehXcsxUnhLGP6HA","review_count":13,"categories":[{"alias":"noodles","title":"Noodles"},{"alias":"chinese","title":"Chinese"}],"rating":4,"coordinates":{"latitude":40.110569,"longitude":-88.232449},"transactions":["pickup","delivery"],"location":{"address1":"410 E Green St","address2":"Ste 13","address3":null,"city":"Champaign","zip_code":"61820","country":"US","state":"IL","display_address":["410 E Green St","Ste 13","Champaign, IL 61820"]},"phone":"+12175502357","display_phone":"(217) 550-2357","distance":2484.8322334736117},{"id":"kUICYu0N_TbtCz0Z8ynPFw","alias":"chipotle-mexican-grill-champaign","name":"Chipotle Mexican Grill","image_url":"https://s3-media2.fl.yelpcdn.com/bphoto/wOnEriSK5RrIb_70-NiUwQ/o.jpg","is_closed":false,"url":"https://www.yelp.com/biz/chipotle-mexican-grill-champaign?adjust_creative=eL75PEDehXcsxUnhLGP6HA&utm_campaign=yelp_api_v3&utm_medium=api_v3_business_search&utm_source=eL75PEDehXcsxUnhLGP6HA","review_count":100,"categories":[{"alias":"mexican","title":"Mexican"},{"alias":"hotdogs","title":"Fast Food"}],"rating":2.5,"coordinates":{"latitude":40.1104240262432,"longitude":-88.230642146627},"transactions":["pickup","delivery"],"price":"$","location":{"address1":"528 E Green St","address2":"Ste 101","address3":"","city":"Champaign","zip_code":"61820","country":"US","state":"IL","display_address":["528 E Green St","Ste 101","Champaign, IL 61820"]},"phone":"+12173440466","display_phone":"(217) 344-0466","distance":2331.4845794380835},{"id":"OyBStpjF5e_iRCMXflFasQ","alias":"evo-cafe-champaign","name":"Evo Cafe","image_url":"https://s3-media3.fl.yelpcdn.com/bphoto/iPssP-uPf3VEIwPplk6_NQ/o.jpg","is_closed":false,"url":"https://www.yelp.com/biz/evo-cafe-champaign?adjust_creative=eL75PEDehXcsxUnhLGP6HA&utm_campaign=yelp_api_v3&utm_medium=api_v3_business_search&utm_source=eL75PEDehXcsxUnhLGP6HA","review_count":73,"categories":[{"alias":"chinese","title":"Chinese"}],"rating":2.5,"coordinates":{"latitude":40.10945,"longitude":-88.2306},"transactions":["delivery"],"price":"$$","location":{"address1":"711 S 6th St","address2":"","address3":"","city":"Champaign","zip_code":"61820","country":"US","state":"IL","display_address":["711 S 6th St","Champaign, IL 61820"]},"phone":"+12173287688","display_phone":"(217) 328-7688","distance":2342.813381116292},{"id":"mofOjB6flg-eAWOFbOkHfQ","alias":"chinatown-buffet-champaign","name":"ChinaTown Buffet","image_url":"https://s3-media3.fl.yelpcdn.com/bphoto/NMyZS1SM7MQDbc_3cY7LSg/o.jpg","is_closed":false,"url":"https://www.yelp.com/biz/chinatown-buffet-champaign?adjust_creative=eL75PEDehXcsxUnhLGP6HA&utm_campaign=yelp_api_v3&utm_medium=api_v3_business_search&utm_source=eL75PEDehXcsxUnhLGP6HA","review_count":103,"categories":[{"alias":"chinese","title":"Chinese"},{"alias":"buffets","title":"Buffets"},{"alias":"sushi","title":"Sushi Bars"}],"rating":2.5,"coordinates":{"latitude":40.1372756958008,"longitude":-88.256217956543},"transactions":[],"price":"$$","location":{"address1":"713 W Marketview Dr","address2":"","address3":"","city":"Champaign","zip_code":"61822","country":"US","state":"IL","display_address":["713 W Marketview Dr","Champaign, IL 61822"]},"phone":"+12173989888","display_phone":"(217) 398-9888","distance":5242.807696996424},{"id":"c2uAqJ2REpLMCZO2jxdi9w","alias":"five-guys-champaign","name":"Five Guys","image_url":"https://s3-media2.fl.yelpcdn.com/bphoto/FjpXCr8TClbPfYy-En6ZiQ/o.jpg","is_closed":false,"url":"https://www.yelp.com/biz/five-guys-champaign?adjust_creative=eL75PEDehXcsxUnhLGP6HA&utm_campaign=yelp_api_v3&utm_medium=api_v3_business_search&utm_source=eL75PEDehXcsxUnhLGP6HA","review_count":50,"categories":[{"alias":"burgers","title":"Burgers"},{"alias":"hotdogs","title":"Fast Food"}],"rating":2.5,"coordinates":{"latitude":40.137729816245496,"longitude":-88.25861785545885},"transactions":["pickup","delivery"],"price":"$","location":{"address1":"901 B West Anthony Dr","address2":"","address3":"","city":"Champaign","zip_code":"61821","country":"US","state":"IL","display_address":["901 B West Anthony Dr","Champaign, IL 61821"]},"phone":"+12173980869","display_phone":"(217) 398-0869","distance":5456.8183784335915},{"id":"LguND80ZuqTnAjKFnjxTIg","alias":"jersey-mikes-subs-champaign-2","name":"Jersey Mike's Subs","image_url":"https://s3-media3.fl.yelpcdn.com/bphoto/BejH2FFbO0TagaSE0vjZvA/o.jpg","is_closed":false,"url":"https://www.yelp.com/biz/jersey-mikes-subs-champaign-2?adjust_creative=eL75PEDehXcsxUnhLGP6HA&utm_campaign=yelp_api_v3&utm_medium=api_v3_business_search&utm_source=eL75PEDehXcsxUnhLGP6HA","review_count":15,"categories":[{"alias":"hotdogs","title":"Fast Food"},{"alias":"delis","title":"Delis"},{"alias":"sandwiches","title":"Sandwiches"}],"rating":3.5,"coordinates":{"latitude":40.1131,"longitude":-88.27630072883606},"transactions":["pickup","delivery"],"location":{"address1":"1712 W Springfield Ave","address2":"Ste F","address3":null,"city":"Champaign","zip_code":"61821","country":"US","state":"IL","display_address":["1712 W Springfield Ave","Ste F","Champaign, IL 61821"]},"phone":"+12179030062","display_phone":"(217) 903-0062","distance":6200.231272988162},{"id":"ltqvLrYq9QjeQjQ1NlqLcA","alias":"ming-garden-champaign","name":"Ming Garden","image_url":"https://s3-media3.fl.yelpcdn.com/bphoto/gbs_7oZh0eaoq8MKtiwQvA/o.jpg","is_closed":false,"url":"https://www.yelp.com/biz/ming-garden-champaign?adjust_creative=eL75PEDehXcsxUnhLGP6HA&utm_campaign=yelp_api_v3&utm_medium=api_v3_business_search&utm_source=eL75PEDehXcsxUnhLGP6HA","review_count":17,"categories":[{"alias":"chinese","title":"Chinese"}],"rating":3.5,"coordinates":{"latitude":40.102573411255,"longitude":-88.27729284098},"transactions":["pickup","delivery"],"price":"$","location":{"address1":"1804 Sangamon Dr","address2":"","address3":"","city":"Champaign","zip_code":"61821","country":"US","state":"IL","display_address":["1804 Sangamon Dr","Champaign, IL 61821"]},"phone":"+12173520056","display_phone":"(217) 352-0056","distance":6385.561882231735},{"id":"YrZxRSTg_dVbZd5PXz7G5Q","alias":"dairy-queen-grill-and-chill-urbana-2","name":"Dairy Queen Grill & Chill","image_url":"https://s3-media2.fl.yelpcdn.com/bphoto/Lg5IqMG_koWYJlmbnR4N7g/o.jpg","is_closed":false,"url":"https://www.yelp.com/biz/dairy-queen-grill-and-chill-urbana-2?adjust_creative=eL75PEDehXcsxUnhLGP6HA&utm_campaign=yelp_api_v3&utm_medium=api_v3_business_search&utm_source=eL75PEDehXcsxUnhLGP6HA","review_count":11,"categories":[{"alias":"hotdogs","title":"Fast Food"},{"alias":"icecream","title":"Ice Cream & Frozen Yogurt"},{"alias":"burgers","title":"Burgers"}],"rating":3.5,"coordinates":{"latitude":40.1161398986019,"longitude":-88.2202894},"transactions":["pickup","delivery"],"price":"$","location":{"address1":"911 W","address2":"","address3":"","city":"Urbana","zip_code":"61801","country":"US","state":"IL","display_address":["911 W","Urbana, IL 61801"]},"phone":"+12173444108","display_phone":"(217) 344-4108","distance":1486.1597994496374},{"id":"JbWQtVLQDEOBlvbVWk2OFg","alias":"chipotle-mexican-grill-champaign-3","name":"Chipotle Mexican Grill","image_url":"https://s3-media3.fl.yelpcdn.com/bphoto/HExWdQiNSelKSFhhZZkDAg/o.jpg","is_closed":false,"url":"https://www.yelp.com/biz/chipotle-mexican-grill-champaign-3?adjust_creative=eL75PEDehXcsxUnhLGP6HA&utm_campaign=yelp_api_v3&utm_medium=api_v3_business_search&utm_source=eL75PEDehXcsxUnhLGP6HA","review_count":88,"categories":[{"alias":"mexican","title":"Mexican"},{"alias":"hotdogs","title":"Fast Food"}],"rating":2.5,"coordinates":{"latitude":40.13740805412462,"longitude":-88.2585786433016},"transactions":["pickup","delivery"],"price":"$","location":{"address1":"903 W Anthony Dr A","address2":"Ste A","address3":"","city":"Champaign","zip_code":"61821","country":"US","state":"IL","display_address":["903 W Anthony Dr A","Ste A","Champaign, IL 61821"]},"phone":"+12173980997","display_phone":"(217) 398-0997","distance":5435.8087594518065},{"id":"ObNQVg_ohRVLex4ppmMC5w","alias":"sonic-drive-in-savoy","name":"Sonic Drive-In","image_url":"https://s3-media2.fl.yelpcdn.com/bphoto/YX_7UksZhbcFiCsPEDj4Nw/o.jpg","is_closed":false,"url":"https://www.yelp.com/biz/sonic-drive-in-savoy?adjust_creative=eL75PEDehXcsxUnhLGP6HA&utm_campaign=yelp_api_v3&utm_medium=api_v3_business_search&utm_source=eL75PEDehXcsxUnhLGP6HA","review_count":16,"categories":[{"alias":"hotdogs","title":"Fast Food"},{"alias":"burgers","title":"Burgers"},{"alias":"icecream","title":"Ice Cream & Frozen Yogurt"}],"rating":3.5,"coordinates":{"latitude":40.05841825129301,"longitude":-88.2514039},"transactions":[],"price":"$","location":{"address1":"101 Calvin St","address2":"","address3":"","city":"SAVOY","zip_code":"61874","country":"US","state":"IL","display_address":["101 Calvin St","SAVOY, IL 61874"]},"phone":"+12173598901","display_phone":"(217) 359-8901","distance":7290.528535777839},{"id":"dKncjeWnvdqYiNC8l26fog","alias":"jimmy-johns-champaign","name":"Jimmy John's","image_url":"https://s3-media3.fl.yelpcdn.com/bphoto/y69c8WpPGoyDVC-cRiwzcg/o.jpg","is_closed":false,"url":"https://www.yelp.com/biz/jimmy-johns-champaign?adjust_creative=eL75PEDehXcsxUnhLGP6HA&utm_campaign=yelp_api_v3&utm_medium=api_v3_business_search&utm_source=eL75PEDehXcsxUnhLGP6HA","review_count":26,"categories":[{"alias":"sandwiches","title":"Sandwiches"},{"alias":"delis","title":"Delis"},{"alias":"hotdogs","title":"Fast Food"}],"rating":3,"coordinates":{"latitude":40.109773,"longitude":-88.240839},"transactions":[],"price":"$","location":{"address1":"43 East Green St","address2":"","address3":"","city":"Champaign","zip_code":"61820","country":"US","state":"IL","display_address":["43 East Green St","Champaign, IL 61820"]},"phone":"+12173446200","display_phone":"(217) 344-6200","distance":3199.123733151066},{"id":"0aA5l11oXes0aS6mkN5lMQ","alias":"szechuan-china-champaign","name":"Szechuan China","image_url":"https://s3-media2.fl.yelpcdn.com/bphoto/Oh-Vs6I9klYGPESzqFrSpw/o.jpg","is_closed":false,"url":"https://www.yelp.com/biz/szechuan-china-champaign?adjust_creative=eL75PEDehXcsxUnhLGP6HA&utm_campaign=yelp_api_v3&utm_medium=api_v3_business_search&utm_source=eL75PEDehXcsxUnhLGP6HA","review_count":54,"categories":[{"alias":"szechuan","title":"Szechuan"}],"rating":2.5,"coordinates":{"latitude":40.1128,"longitude":-88.239095},"transactions":["pickup","delivery"],"price":"$$","location":{"address1":"401 S 1st St","address2":"","address3":"","city":"Champaign","zip_code":"61820","country":"US","state":"IL","display_address":["401 S 1st St","Champaign, IL 61820"]},"phone":"+12173989999","display_phone":"(217) 398-9999","distance":3043.2868804885557},{"id":"B2N_XO6fX0ILL9c50QuzHg","alias":"taco-johns-champaign","name":"Taco John's","image_url":"https://s3-media2.fl.yelpcdn.com/bphoto/aKWgjs1NIf8HjkZ2tq7cXw/o.jpg","is_closed":false,"url":"https://www.yelp.com/biz/taco-johns-champaign?adjust_creative=eL75PEDehXcsxUnhLGP6HA&utm_campaign=yelp_api_v3&utm_medium=api_v3_business_search&utm_source=eL75PEDehXcsxUnhLGP6HA","review_count":35,"categories":[{"alias":"mexican","title":"Mexican"},{"alias":"hotdogs","title":"Fast Food"}],"rating":3,"coordinates":{"latitude":40.14703,"longitude":-88.25867},"transactions":["pickup","delivery"],"price":"$","location":{"address1":"902 Meijer Dr","address2":"","address3":null,"city":"Champaign","zip_code":"61822","country":"US","state":"IL","display_address":["902 Meijer Dr","Champaign, IL 61822"]},"phone":"+12176075577","display_phone":"(217) 607-5577","distance":6052.68195851834},{"id":"w9h-pTp1K6JMos-xzl3Wyw","alias":"hot-wok-express-urbana","name":"Hot Wok Express","image_url":"https://s3-media2.fl.yelpcdn.com/bphoto/1eLQWrsa9r4HB0aFHsBSbg/o.jpg","is_closed":false,"url":"https://www.yelp.com/biz/hot-wok-express-urbana?adjust_creative=eL75PEDehXcsxUnhLGP6HA&utm_campaign=yelp_api_v3&utm_medium=api_v3_business_search&utm_source=eL75PEDehXcsxUnhLGP6HA","review_count":34,"categories":[{"alias":"chinese","title":"Chinese"}],"rating":3,"coordinates":{"latitude":40.1167,"longitude":-88.22264},"transactions":["delivery"],"price":"$","location":{"address1":"1102 W University Ave","address2":"","address3":"","city":"Urbana","zip_code":"61801","country":"US","state":"IL","display_address":["1102 W University Ave","Urbana, IL 61801"]},"phone":"+12173847170","display_phone":"(217) 384-7170","distance":1693.5174903138736},{"id":"5TPyzmhr3TKyWkPfzm01wA","alias":"fazolis-champaign","name":"Fazoli's","image_url":"https://s3-media4.fl.yelpcdn.com/bphoto/-buFC8cEYb_iwAEYMZZZ8A/o.jpg","is_closed":false,"url":"https://www.yelp.com/biz/fazolis-champaign?adjust_creative=eL75PEDehXcsxUnhLGP6HA&utm_campaign=yelp_api_v3&utm_medium=api_v3_business_search&utm_source=eL75PEDehXcsxUnhLGP6HA","review_count":43,"categories":[{"alias":"italian","title":"Italian"},{"alias":"hotdogs","title":"Fast Food"},{"alias":"pizza","title":"Pizza"}],"rating":2.5,"coordinates":{"latitude":40.139841,"longitude":-88.258482},"transactions":["pickup","delivery"],"price":"$","location":{"address1":"2029 N. Prospect Avenue","address2":"","address3":"","city":"Champaign","zip_code":"61821","country":"US","state":"IL","display_address":["2029 N. Prospect Avenue","Champaign, IL 61821"]},"phone":"+12173564820","display_phone":"(217) 356-4820","distance":5570.299410784179},{"id":"1qQ5VkxiBUjbGGdpBN-PUQ","alias":"spicy-tang-champaign-2","name":"Spicy Tang","image_url":"https://s3-media4.fl.yelpcdn.com/bphoto/kEz69qkR7mn9F5FjgaHIPQ/o.jpg","is_closed":false,"url":"https://www.yelp.com/biz/spicy-tang-champaign-2?adjust_creative=eL75PEDehXcsxUnhLGP6HA&utm_campaign=yelp_api_v3&utm_medium=api_v3_business_search&utm_source=eL75PEDehXcsxUnhLGP6HA","review_count":46,"categories":[{"alias":"chinese","title":"Chinese"}],"rating":2.5,"coordinates":{"latitude":40.1107375,"longitude":-88.2305849},"transactions":["pickup","delivery"],"price":"$$","location":{"address1":"607 S 6th St","address2":"","address3":null,"city":"Champaign","zip_code":"61820","country":"US","state":"IL","display_address":["607 S 6th St","Champaign, IL 61820"]},"phone":"+12172008018","display_phone":"(217) 200-8018","distance":2322.6674396243784}],"total":106,"region":{"center":{"longitude":-88.2033920288086,"latitude":40.112727532770165}}}