{"businesses":[{"id":"Tiu3iRXMlzEEI6Epp3I8lg","alias":"cafe-sababa-champaign","name":"Cafe Sababa","image_url":"https://s3-media2.fl.yelpcdn.com/bphoto/AfOCXW7tbFzPiVfRM3INZA/o.jpg","is_closed":false,"url":"https://www.yelp.com/biz/cafe-sababa-champaign?adjust_creative=eL75PEDehXcsxUnhLGP6HA&utm_campaign=yelp_api_v3&utm_medium=api_v3_business_search&utm_source=eL75PEDehXcsxUnhLGP6HA","review_count":5,"categories":[{"alias":"kosher","title":"Kosher"},{"alias":"vegetarian","title":"Vegetarian"},{"alias":"pizza","title":"Pizza"}],"rating":5,"coordinates":{"latitude":40.108734,"longitude":-88.231522},"transactions":["delivery"],"price":"$","location":{"address1":"503 E John St","address2":null,"address3":"","city":"Champaign","zip_code":"61820","country":"US","state":"IL","display_address":["503 E John St","Champaign, IL 61820"]},"phone":"+12173441328","display_phone":"(217) 344-1328","distance":2437.7528942137646},{"id":"M-n8Chpe5EBHgIY8uIRgQg","alias":"lanxang-champaign","name":"LanXang","image_url":"https://s3-media1.fl.yelpcdn.com/bphoto/XFl23kTGxDDwuJUplB0x5Q/o.jpg","is_closed":false,"url":"https://www.yelp.com/biz/lanxang-champaign?adjust_creative=eL75PEDehXcsxUnhLGP6HA&utm_campaign=yelp_api_v3&utm_medium=api_v3_business_search&utm_source=eL75PEDehXcsxUnhLGP6HA","review_count":5,"categories":[{"alias":"thai","title":"Thai"},{"alias":"laotian","title":"Laotian"}],"rating":5,"coordinates":{"latitude":40.10518,"longitude":-88.24386},"transactions":["pickup","delivery"],"location":{"address1":"905 S Neil St","address2":"","address3":null,"city":"Champaign","zip_code":"61820","country":"US","state":"IL","display_address":["905 S Neil St","Champaign, IL 61820"]},"phone":"+12176007162","display_phone":"(217) 600-7162","distance":3545.590038900219},{"id":"r0B-DJAA_XX2Dq_cwbPcaQ","alias":"sakura-japanese-restaurant-urbana","name":"Sakura Japanese Restaurant","image_url":"https://s3-media3.fl.yelpcdn.com/bphoto/V6okwbSV4decXtzG_hvrrQ/o.jpg","is_closed":false,"url":"https://www.yelp.com/biz/sakura-japanese-restaurant-urbana?adjust_creative=eL75PEDehXcsxUnhLGP6HA&utm_campaign=yelp_api_v3&utm_medium=api_v3_business_search&utm_source=eL75PEDehXcsxUnhLGP6HA","review_count":6,"categories":[{"alias":"japanese","title":"Japanese"}],"rating":5,"coordinates":{"latitude":40.1126375,"longitude":-88.2086143},"transactions":["pickup","delivery"],"location":{"address1":"132 W Main St","address2":"","address3":null,"city":"Urbana","zip_code":"61801","country":"US","state":"IL","display_address":["132 W Main St","Urbana, IL 61801"]},"phone":"","display_phone":"","distance":444.2117837156416},{"id":"xWmR9ILd2SZhoUrVkkhuZw","alias":"eat-fine-design-by-khun-kung-champaign","name":"Eat Fine Design By Khun Kung","image_url":"https://s3-media1.fl.yelpcdn.com/bphoto/tKQ2EPi-IV5C0h4wU4XY1g/o.jpg","is_closed":false,"url":"https://www.yelp.com/biz/eat-fine-design-by-khun-kung-champaign?adjust_creative=eL75PEDehXcsxUnhLGP6HA&utm_campaign=yelp_api_v3&utm_medium=api_v3_business_search&utm_source=eL75PEDehXcsxUnhLGP6HA","review_count":9,"categories":[{"alias":"catering","title":"Caterers"},{"alias":"thai","title":"Thai"},{"alias":"fooddeliveryservices","title":"Food Delivery Services"}],"rating":5,"coordinates":{"latitude":40.11422348022461,"longitude":-88.24172973632812},"transactions":[],"location":{"address1":null,"address2":null,"address3":"","city":"Champaign","zip_code":"61820","country":"US","state":"IL","display_address":["Champaign, IL 61820"]},"phone":"+18444801048","display_phone":"(844) 480-1048","distance":3248.179950028204},{"id":"avyN1FdXcxQfrM8Mqz7WGA","alias":"ishi-sushi-and-kaori-s-oven-champaign","name":"ISHI sushi & Kaori’s Oven","image_url":"https://s3-media4.fl.yelpcdn.com/bphoto/luuaKcY7H7I_OwjHKI41eQ/o.jpg","is_closed":false,"url":"https://www.yelp.com/biz/ishi-sushi-and-kaori-s-oven-champaign?adjust_creative=eL75PEDehXcsxUnhLGP6HA&utm_campaign=yelp_api_v3&utm_medium=api_v3_business_search&utm_source=eL75PEDehXcsxUnhLGP6HA","review_count":5,"categories":[{"alias":"sushi","title":"Sushi Bars"}],"rating":5,"coordinates":{"latitude":40.09874,"longitude":-88.24724},"transactions":[],"location":{"address1":"305 Cedar St","address2":"","address3":null,"city":"Champaign","zip_code":"61820","country":"US","state":"IL","display_address":["305 Cedar St","Champaign, IL 61820"]},"phone":"","display_phone":"","distance":4029.9323537093755},{"id":"oszo40dRmtYPuPj6HY_eWw","alias":"weird-meat-boyz-kitchen-champaign","name":"Weird Meat Boyz Kitchen","image_url":"https://s3-media4.fl.yelpcdn.com/bphoto/Yt5EOl4oeWmQwvt-NDIyRw/o.jpg","is_closed":false,"url":"https://www.yelp.com/biz/weird-meat-boyz-kitchen-champaign?adjust_creative=eL75PEDehXcsxUnhLGP6HA&utm_campaign=yelp_api_v3&utm_medium=api_v3_business_search&utm_source=eL75PEDehXcsxUnhLGP6HA","review_count":11,"categories":[{"alias":"newamerican","title":"American (New)"},{"alias":"gastropubs","title":"Gastropubs"}],"rating":5,"coordinates":{"latitude":40.11917,"longitude":-88.24264},"transactions":[],"location":{"address1":"340 N Neil St","address2":"","address3":"","city":"Champaign","zip_code":"61820","country":"US","state":"IL","display_address":["340 N Neil St","Champaign, IL 61820"]},"phone":"+18155759514","display_phone":"(815) 575-9514","distance":3429.0776883437193},{"id":"ATbSKgTbl8mCBK0EQZPr3A","alias":"punch-champaign","name":"Punch!","image_url":"https://s3-media4.fl.yelpcdn.com/bphoto/GtK8hOXq5lOQi7nFjDkKPw/o.jpg","is_closed":false,"url":"https://www.yelp.com/biz/punch-champaign?adjust_creative=eL75PEDehXcsxUnhLGP6HA&utm_campaign=yelp_api_v3&utm_medium=api_v3_business_search&utm_source=eL75PEDehXcsxUnhLGP6HA","review_count":22,"categories":[{"alias":"bars","title":"Bars"},{"alias":"tradamerican","title":"American (Traditional)"}],"rating":5,"coordinates":{"latitude":40.117988,"longitude":-88.244068},"transactions":[],"location":{"address1":"217 N Neil St","address2":"","address3":null,"city":"Champaign","zip_code":"61820","country":"US","state":"IL","display_address":["217 N Neil St","Champaign, IL 61820"]},"phone":"+12175312800","display_phone":"(217) 531-2800","distance":3508.217467704647},{"id":"4hWDMVtfnpyY72_5QMbthA","alias":"old-time-meat-and-deli-shoppe-champaign","name":"Old Time Meat & Deli Shoppe","image_url":"https://s3-media1.fl.yelpcdn.com/bphoto/fQsiIplBW-G_wF30A4lGjA/o.jpg","is_closed":false,"url":"https://www.yelp.com/biz/old-time-meat-and-deli-shoppe-champaign?adjust_creative=eL75PEDehXcsxUnhLGP6HA&utm_campaign=yelp_api_v3&utm_medium=api_v3_business_search&utm_source=eL75PEDehXcsxUnhLGP6HA","review_count":54,"categories":[{"alias":"meats","title":"Meat Shops"},{"alias":"delis","title":"Delis"}],"rating":5,"coordinates":{"latitude":40.091901,"longitude":-88.245362},"transactions":[],"price":"$$","location":{"address1":"2018 S Neil St","address2":"","address3":"","city":"Champaign","zip_code":"61820","country":"US","state":"IL","display_address":["2018 S Neil St","Champaign, IL 61820"]},"phone":"+12173519123","display_phone":"(217) 351-9123","distance":4255.034059966833},{"id":"1fohrgQz-rJ-gI3iRwQpEA","alias":"dubai-grill-urbana-2","name":"Dubai Grill","image_url":"https://s3-media3.fl.yelpcdn.com/bphoto/_Y7obPKcfT2kqCyqKRQu7w/o.jpg","is_closed":false,"url":"https://www.yelp.com/biz/dubai-grill-urbana-2?adjust_creative=eL75PEDehXcsxUnhLGP6HA&utm_campaign=yelp_api_v3&utm_medium=api_v3_business_search&utm_source=eL75PEDehXcsxUnhLGP6HA","review_count":22,"categories":[{"alias":"kebab","title":"Kebab"},{"alias":"desserts","title":"Desserts"},{"alias":"sandwiches","title":"Sandwiches"}],"rating":5,"coordinates":{"latitude":40.10688907823998,"longitude":-88.22200909206543},"transactions":["pickup","delivery"],"location":{"address1":"701 S Gregory St","address2":"","address3":null,"city":"Urbana","zip_code":"61801","country":"US","state":"IL","display_address":["701 S Gregory St","Urbana, IL 61801"]},"phone":"+12175521276","display_phone":"(217) 552-1276","distance":1711.184657314492},{"id":"xOM55TwWWb8w3SWROmrhIw","alias":"smith-burger-company-champaign","name":"Smith Burger Company","image_url":"https://s3-media3.fl.yelpcdn.com/bphoto/AP7rmQEnX2UF_0hyCQDQAw/o.jpg","is_closed":false,"url":"https://www.yelp.com/biz/smith-burger-company-champaign?adjust_creative=eL75PEDehXcsxUnhLGP6HA&utm_campaign=yelp_api_v3&utm_medium=api_v3_business_search&utm_source=eL75PEDehXcsxUnhLGP6HA","review_count":5,"categories":[{"alias":"foodtrucks","title":"Food Trucks"},{"alias":"burgers","title":"Burgers"},{"alias":"sandwiches","title":"Sandwiches"}],"rating":5,"coordinates":{"latitude":40.11346,"longitude":-88.2371},"transactions":[],"location":{"address1":"","address2":"","address3":null,"city":"Champaign","zip_code":"61820","country":"US","state":"IL","display_address":["Champaign, IL 61820"]},"phone":"+12178880615","display_phone":"(217) 888-0615","distance":3248.179950028204},{"id":"-yZ78Hd2DKDqvxJKbCyELg","alias":"stango-cuisine-champaign","name":"Stango Cuisine","image_url":"https://s3-media1.fl.yelpcdn.com/bphoto/CMUTSbu7K15YYpCTcqxuSw/o.jpg","is_closed":false,"url":"https://www.yelp.com/biz/stango-cuisine-champaign?adjust_creative=eL75PEDehXcsxUnhLGP6HA&utm_campaign=yelp_api_v3&utm_medium=api_v3_business_search&utm_source=eL75PEDehXcsxUnhLGP6HA","review_count":44,"categories":[{"alias":"african","title":"African"},{"alias":"caribbean","title":"Caribbean"},{"alias":"newamerican","title":"American (New)"}],"rating":5,"coordinates":{"latitude":40.1200844,"longitude":-88.2409272},"transactions":["delivery","pickup"],"price":"$","location":{"address1":"500 N Walnut St","address2":null,"address3":"","city":"Champaign ","zip_code":"61820","country":"US","state":"IL","display_address":["500 N Walnut St","Champaign , IL 61820"]},"phone":"+12173693566","display_phone":"(217) 369-3566","distance":3294.958549027559},{"id":"nHqmdhE9JImmPWdeWVUvXQ","alias":"the-stuft-bird-champaign","name":"The Stuft Bird","image_url":"https://s3-media3.fl.yelpcdn.com/bphoto/CAanozHZWCKhBVqb7kh2uQ/o.jpg","is_closed":false,"url":"https://www.yelp.com/biz/the-stuft-bird-champaign?adjust_creative=eL75PEDehXcsxUnhLGP6HA&utm_campaign=yelp_api_v3&utm_medium=api_v3_business_search&utm_source=eL75PEDehXcsxUnhLGP6HA","review_count":4,"categories":[{"alias":"chicken_wings","title":"Chicken Wings"},{"alias":"foodtrucks","title":"Food Trucks"}],"rating":5,"coordinates":{"latitude":40.1167665,"longitude":-88.2335268},"transactions":["pickup","delivery"],"location":{"address1":"104 N 4th St","address2":null,"address3":null,"city":"Champaign","zip_code":"61820","country":"US","state":"IL","display_address":["104 N 4th St","Champaign, IL 61820"]},"phone":"+12179541962","display_phone":"(217) 954-1962","distance":2597.7570559726855},{"id":"iKxFvmaNRpT1PtTIkqONXA","alias":"el-paraiso-urbana","name":"El Paraiso","image_url":"https://s3-media4.fl.yelpcdn.com/bphoto/QHkxMxNDWsql4E3VyuCsaQ/o.jpg","is_closed":false,"url":"https://www.yelp.com/biz/el-paraiso-urbana?adjust_creative=eL75PEDehXcsxUnhLGP6HA&utm_campaign=yelp_api_v3&utm_medium=api_v3_business_search&utm_source=eL75PEDehXcsxUnhLGP6HA","review_count":4,"categories":[{"alias":"colombian","title":"Colombian"},{"alias":"mexican","title":"Mexican"},{"alias":"catering","title":"Caterers"}],"rating":5,"coordinates":{"latitude":40.11519,"longitude":-88.20804},"transactions":["delivery","pickup"],"location":{"address1":"401 N Broadway Ave","address2":null,"address3":"","city":"Urbana","zip_code":"61801","country":"US","state":"IL","display_address":["401 N Broadway Ave","Urbana, IL 61801"]},"phone":"+13129717149","display_phone":"(312) 971-7149","distance":490.67451826869694},{"id":"RucrUwlX6hvGlUOrakViYw","alias":"baldarottas-porketta-and-sicilian-sausage-urbana","name":"Baldarotta's Porketta & Sicilian Sausage","image_url":"https://s3-media1.fl.yelpcdn.com/bphoto/f8epEjI8qv0g6cLMiD0o_Q/o.jpg","is_closed":false,"url":"https://www.yelp.com/biz/baldarottas-porketta-and-sicilian-sausage-urbana?adjust_creative=eL75PEDehXcsxUnhLGP6HA&utm_campaign=yelp_api_v3&utm_medium=api_v3_business_search&utm_source=eL75PEDehXcsxUnhLGP6HA","review_count":66,"categories":[{"alias":"sandwiches","title":"Sandwiches"},{"alias":"pizza","title":"Pizza"}],"rating":4.5,"coordinates":{"latitude":40.11061,"longitude":-88.20704},"transactions":["pickup","delivery"],"price":"$$","location":{"address1":"300 S Broadway Ave","address2":null,"address3":"Lincoln Square Food Court","city":"Urbana","zip_code":"61801","country":"US","state":"IL","display_address":["300 S Broadway Ave","Lincoln Square Food Court","Urbana, IL 61801"]},"phone":"+12178005726","display_phone":"(217) 800-5726","distance":369.3270338908202},{"id":"6ockUmdOBYBApEsUCJkBzA","alias":"el-oasis-urbana","name":"El Oasis","image_url":"https://s3-media2.fl.yelpcdn.com/bphoto/0DKstWfAY6Wa5iXDMXxcKg/o.jpg","is_closed":false,"url":"https://www.yelp.com/biz/el-oasis-urbana?adjust_creative=eL75PEDehXcsxUnhLGP6HA&utm_campaign=yelp_api_v3&utm_medium=api_v3_business_search&utm_source=eL75PEDehXcsxUnhLGP6HA","review_count":106,"categories":[{"alias":"icecream","title":"Ice Cream & Frozen Yogurt"},{"alias":"mexican","title":"Mexican"}],"rating":4.5,"coordinates":{"latitude":40.117278,"longitude":-88.203156},"transactions":["pickup","delivery"],"price":"$","location":{"address1":"510 N Cunningham Ave","address2":"","address3":"","city":"Urbana","zip_code":"61802","country":"US","state":"IL","display_address":["510 N Cunningham Ave","Urbana, IL 61802"]},"phone":"+12179540215","display_phone":"(217) 954-0215","distance":506.3862323643498},{"id":"5lw5rrhFMz-liykUn8dGSw","alias":"fernandos-food-champaign","name":"Fernando's Food","image_url":"https://s3-media2.fl.yelpcdn.com/bphoto/XtBCiDWUCEZbgK94Ff-VWA/o.jpg","is_closed":false,"url":"https://www.yelp.com/biz/fernandos-food-champaign?adjust_creative=eL75PEDehXcsxUnhLGP6HA&utm_campaign=yelp_api_v3&utm_medium=api_v3_business_search&utm_source=eL75PEDehXcsxUnhLGP6HA","review_count":57,"categories":[{"alias":"foodtrucks","title":"Food Trucks"},{"alias":"mexican","title":"Mexican"}],"rating":4.5,"coordinates":{"latitude":40.112846,"longitude":-88.240511},"transactions":["pickup","delivery"],"price":"$","location":{"address1":"44 E Sprinfield","address2":"","address3":"","city":"Champaign","zip_code":"61820","country":"US","state":"IL","display_address":["44 E Sprinfield","Champaign, IL 61820"]},"phone":"+12172550210","display_phone":"(217) 255-0210","distance":3156.5987300957327},{"id":"9V4AGrJphOIw2RC1UoPPRw","alias":"caribbean-grill-restaurant-champaign","name":"Caribbean Grill Restaurant","image_url":"https://s3-media1.fl.yelpcdn.com/bphoto/_7R55ECaNs6N_vjwYVUPkA/o.jpg","is_closed":false,"url":"https://www.yelp.com/biz/caribbean-grill-restaurant-champaign?adjust_creative=eL75PEDehXcsxUnhLGP6HA&utm_campaign=yelp_api_v3&utm_medium=api_v3_business_search&utm_source=eL75PEDehXcsxUnhLGP6HA","review_count":119,"categories":[{"alias":"caribbean","title":"Caribbean"},{"alias":"bbq","title":"Barbeque"}],"rating":4.5,"coordinates":{"latitude":40.087699,"longitude":-88.247455},"transactions":["delivery"],"price":"$","location":{"address1":"2135 S Neil St","address2":"","address3":null,"city":"Champaign","zip_code":"61820","country":"US","state":"IL","display_address":["2135 S Neil St","Champaign, IL 61820"]},"phone":"+12179605375","display_phone":"(217) 960-5375","distance":4668.099952600794},{"id":"Qe8i6H81lE1BIdT6oPP86w","alias":"golden-wheat-champaign","name":"Golden Wheat","image_url":"https://s3-media3.fl.yelpcdn.com/bphoto/VaB5tPzwXii8PhgDHZl5LQ/o.jpg","is_closed":false,"url":"https://www.yelp.com/biz/golden-wheat-champaign?adjust_creative=eL75PEDehXcsxUnhLGP6HA&utm_campaign=yelp_api_v3&utm_medium=api_v3_business_search&utm_source=eL75PEDehXcsxUnhLGP6HA","review_count":13,"categories":[{"alias":"noodles","title":"Noodles"},{"alias":"chinese","title":"Chinese"},{"alias":"asianfusion","title":"Asian Fusion"}],"rating":4.5,"coordinates":{"latitude":40.11009023902665,"longitude":-88.2298011},"transactions":[],"location":{"address1":"611 E Green St","address2":"Ste A","address3":null,"city":"Champaign","zip_code":"61820","country":"US","state":"IL","display_address":["611 E Green St","Ste A","Champaign, IL 61820"]},"phone":"+12178190405","display_phone":"(217) 819-0405","distance":2264.9192938895235},{"id":"O6vI8ti-3uYE15ooEthFiw","alias":"mr-crab-champaign","name":"Mr. Crab","image_url":"https://s3-media4.fl.yelpcdn.com/bphoto/iRinMEiVB0vdZQLpKYij3A/o.jpg","is_closed":false,"url":"https://www.yelp.com/biz/mr-crab-champaign?adjust_creative=eL75PEDehXcsxUnhLGP6HA&utm_campaign=yelp_api_v3&utm_medium=api_v3_business_search&utm_source=eL75PEDehXcsxUnhLGP6HA","review_count":19,"categories":[{"alias":"seafood","title":"Seafood"},{"alias":"cajun","title":"Cajun/Creole"}],"rating":4.5,"coordinates":{"latitude":40.11279,"longitude":-88.23909},"transactions":["pickup","delivery"],"location":{"address1":"401 South 1st St","address2":null,"address3":"","city":"Champaign","zip_code":"61820","country":"US","state":"IL","display_address":["401 South 1st St","Champaign, IL 61820"]},"phone":"+12173989999","display_phone":"(217) 398-9999","distance":3043.2868804885557},{"id":"vdp-nKWEI4ayIKmU0FThUw","alias":"basil-thai-kitchen-champaign","name":"Basil Thai Kitchen","image_url":"https://s3-media2.fl.yelpcdn.com/bphoto/U-y3qXMqzvEstL5OoA1LzQ/o.jpg","is_closed":false,"url":"https://www.yelp.com/biz/basil-thai-kitchen-champaign?adjust_creative=eL75PEDehXcsxUnhLGP6HA&utm_campaign=yelp_api_v3&utm_medium=api_v3_business_search&utm_source=eL75PEDehXcsxUnhLGP6HA","review_count":4,"categories":[{"alias":"thai","title":"Thai"}],"rating":5,"coordinates":{"latitude":40.1423580540005,"longitude":-88.2431960105896},"transactions":["delivery"],"location":{"address1":"2000 N Neil St","address2":"Level 1","address3":"Market Place Shopping Center","city":"Champaign","zip_code":"61820","country":"US","state":"IL","display_address":["2000 N Neil St","Level 1","Market Place Shopping Center","Champaign, IL 61820"]},"phone":"+12173562700","display_phone":"(217) 356-2700","distance":4723.138409957854},{"id":"fQWnYXPZx7O5LsA4FsXlOg","alias":"bb-q-chicken-urbana-champaign-urbana-2","name":"bb.q Chicken - Urbana Champaign","image_url":"https://s3-media2.fl.yelpcdn.com/bphoto/4KdutitI4i9f8yXTj3ya0A/o.jpg","is_closed":false,"url":"https://www.yelp.com/biz/bb-q-chicken-urbana-champaign-urbana-2?adjust_creative=eL75PEDehXcsxUnhLGP6HA&utm_campaign=yelp_api_v3&utm_medium=api_v3_business_search&utm_source=eL75PEDehXcsxUnhLGP6HA","review_count":3,"categories":[{"alias":"korean","title":"Korean"},{"alias":"chickenshop","title":"Chicken Shop"}],"rating":5,"coordinates":{"latitude":40.10649,"longitude":-88.22114},"transactions":["pickup","delivery"],"location":{"address1":"700 S Gregory St","address2":"Ste F","address3":null,"city":"Urbana","zip_code":"61801","country":"US","state":"IL","display_address":["700 S Gregory St","Ste F","Urbana, IL 61801"]},"phone":"+12176072782","display_phone":"(217) 607-2782","distance":1668.550892142867},{"id":"8VRiB8ChR6RpS0f1Ox7epw","alias":"shawarma-joint-champaign-3","name":"Shawarma Joint","image_url":"https://s3-media3.fl.yelpcdn.com/bphoto/-qFZfPOJPoJBKuXaIS5IyA/o.jpg","is_closed":false,"url":"https://www.yelp.com/biz/shawarma-joint-champaign-3?adjust_creative=eL75PEDehXcsxUnhLGP6HA&utm_campaign=yelp_api_v3&utm_medium=api_v3_business_search&utm_source=eL75PEDehXcsxUnhLGP6HA","review_count":42,"categories":[{"alias":"mediterranean","title":"Mediterranean"},{"alias":"wraps","title":"Wraps"}],"rating":4.5,"coordinates":{"latitude":40.11008,"longitude":-88.2293},"transactions":["pickup","delivery"],"location":{"address1":"627 E Green St","address2":"","address3":null,"city":"Champaign","zip_code":"61820","country":"US","state":"IL","display_address":["627 E Green St","Champaign, IL 61820"]},"phone":"+12175521320","display_phone":"(217) 552-1320","distance":2221.1362151928115},{"id":"dA9xisX951rOnx8IGLPfjw","alias":"fat-city-bar-and-grill-champaign","name":"Fat City Bar and Grill","image_url":"https://s3-media2.fl.yelpcdn.com/bphoto/qifwUAzFcBXVqkyrwUhM0w/o.jpg","is_closed":false,"url":"https://www.yelp.com/biz/fat-city-bar-and-grill-champaign?adjust_creative=eL75PEDehXcsxUnhLGP6HA&utm_campaign=yelp_api_v3&utm_medium=api_v3_business_search&utm_source=eL75PEDehXcsxUnhLGP6HA","review_count":11,"categories":[{"alias":"bars","title":"Bars"},{"alias":"tradamerican","title":"American (Traditional)"}],"rating":4.5,"coordinates":{"latitude":40.110969543457,"longitude":-88.2427368164062},"transactions":[],"price":"$$","location":{"address1":"505 S Chestnut St","address2":null,"address3":"","city":"Champaign","zip_code":"61820","country":"US","state":"IL","display_address":["505 S Chestnut St","Champaign, IL 61820"]},"phone":"+12179540556","display_phone":"(217) 954-0556","distance":3352.9697052361435},{"id":"dz16HL8ON9n2InWIt49R8g","alias":"tres-nopales-urbana","name":"Tres Nopales","image_url":"https://s3-media3.fl.yelpcdn.com/bphoto/ncFS-qkEYbaBbTcC05mzKA/o.jpg","is_closed":false,"url":"https://www.yelp.com/biz/tres-nopales-urbana?adjust_creative=eL75PEDehXcsxUnhLGP6HA&utm_campaign=yelp_api_v3&utm_medium=api_v3_business_search&utm_source=eL75PEDehXcsxUnhLGP6HA","review_count":11,"categories":[{"alias":"mexican","title":"Mexican"}],"rating":4.5,"coordinates":{"latitude":40.11195,"longitude":-88.20865},"transactions":["pickup","delivery"],"location":{"address1":"114 S Race St","address2":"","address3":null,"city":"Urbana","zip_code":"61801","country":"US","state":"IL","display_address":["114 S Race St","Urbana, IL 61801"]},"phone":"+12179541211","display_phone":"(217) 954-1211","distance":456.9064520001289},{"id":"ijO4F7L6HEuCGBM73gwnOg","alias":"la-mixteca-restaurant-urbana-2","name":"La Mixteca Restaurant","image_url":"https://s3-media4.fl.yelpcdn.com/bphoto/JzLipB6a2II7IeVR4kmIkA/o.jpg","is_closed":false,"url":"https://www.yelp.com/biz/la-mixteca-restaurant-urbana-2?adjust_creative=eL75PEDehXcsxUnhLGP6HA&utm_campaign=yelp_api_v3&utm_medium=api_v3_business_search&utm_source=eL75PEDehXcsxUnhLGP6HA","review_count":53,"categories":[{"alias":"mexican","title":"Mexican"}],"rating":4.5,"coordinates":{"latitude":40.117487,"longitude":-88.2032},"transactions":["delivery","pickup"],"location":{"address1":"510 N Cunningham","address2":"","address3":null,"city":"Urbana","zip_code":"61802","country":"US","state":"IL","display_address":["510 N Cunningham","Urbana, IL 61802"]},"phone":"+12175521544","display_phone":"(217) 552-1544","distance":529.4798866480102},{"id":"3I3gl-WS7CBa41A4BDA7yw","alias":"broadway-food-hall-urbana-4","name":"Broadway Food Hall","image_url":"https://s3-media3.fl.yelpcdn.com/bphoto/zzb2-52wyWcAEScmkNRf7g/o.jpg","is_closed":false,"url":"https://www.yelp.com/biz/broadway-food-hall-urbana-4?adjust_creative=eL75PEDehXcsxUnhLGP6HA&utm_campaign=yelp_api_v3&utm_medium=api_v3_business_search&utm_source=eL75PEDehXcsxUnhLGP6HA","review_count":60,"categories":[{"alias":"food_court","title":"Food Court"}],"rating":4.5,"coordinates":{"latitude":40.11519,"longitude":-88.20804},"transactions":[],"price":"$$","location":{"address1":"401 N Broadway Ave","address2":"","address3":null,"city":"Urbana","zip_code":"61801","country":"US","state":"IL","display_address":["401 N Broadway Ave","Urbana, IL 61801"]},"phone":"","display_phone":"","distance":490.67451826869694},{"id":"JENZ-Yjl6D5ZPqV5fPSO3g","alias":"caribbean-grill-food-truck-urbana","name":"Caribbean Grill Food Truck","image_url":"https://s3-media2.fl.yelpcdn.com/bphoto/6XKgVErJ8CPbru21qHMniw/o.jpg","is_closed":false,"url":"https://www.yelp.com/biz/caribbean-grill-food-truck-urbana?adjust_creative=eL75PEDehXcsxUnhLGP6HA&utm_campaign=yelp_api_v3&utm_medium=api_v3_business_search&utm_source=eL75PEDehXcsxUnhLGP6HA","review_count":21,"categories":[{"alias":"caribbean","title":"Caribbean"},{"alias":"foodtrucks","title":"Food Trucks"},{"alias":"desserts","title":"Desserts"}],"rating":4.5,"coordinates":{"latitude":40.107019592287,"longitude":-88.2240849535644},"transactions":[],"price":"$","location":{"address1":"","address2":null,"address3":"","city":"Urbana","zip_code":"61801","country":"US","state":"IL","display_address":["Urbana, IL 61801"]},"phone":"+12179605375","display_phone":"(217) 960-5375","distance":1870.7449043704462},{"id":"NPpttQPnIbzezRMURx973g","alias":"signature-grill-champaign-2","name":"Signature Grill","image_url":"https://s3-media3.fl.yelpcdn.com/bphoto/nzjNvxoAjz7gW3J6hGjbkA/o.jpg","is_closed":false,"url":"https://www.yelp.com/biz/signature-grill-champaign-2?adjust_creative=eL75PEDehXcsxUnhLGP6HA&utm_campaign=yelp_api_v3&utm_medium=api_v3_business_search&utm_source=eL75PEDehXcsxUnhLGP6HA","review_count":47,"categories":[{"alias":"mediterranean","title":"Mediterranean"},{"alias":"indpak","title":"Indian"},{"alias":"mexican","title":"Mexican"}],"rating":4.5,"coordinates":{"latitude":40.11014,"longitude":-88.23133},"transactions":["pickup","delivery"],"price":"$","location":{"address1":"505 E Green St","address2":"","address3":null,"city":"Champaign","zip_code":"61820","country":"US","state":"IL","display_address":["505 E Green St","Champaign, IL 61820"]},"phone":"+12176070893","display_phone":"(217) 607-0893","distance":2393.230892203097},{"id":"9MnbQg7kfb_WgxoV0hXKSQ","alias":"black-dog-smoke-and-ale-house-urbana","name":"Black Dog Smoke & Ale House","image_url":"https://s3-media4.fl.yelpcdn.com/bphoto/32EeG1M1GjCtWjqfEjR7Xg/o.jpg","is_closed":false,"url":"https://www.yelp.com/biz/black-dog-smoke-and-ale-house-urbana?adjust_creative=eL75PEDehXcsxUnhLGP6HA&utm_campaign=yelp_api_v3&utm_medium=api_v3_business_search&utm_source=eL75PEDehXcsxUnhLGP6HA","review_count":886,"categories":[{"alias":"bbq","title":"Barbeque"},{"alias":"tradamerican","title":"American (Traditional)"}],"rating":4.5,"coordinates":{"latitude":40.113818215463,"longitude":-88.207689252733},"transactions":["delivery"],"price":"$$","location":{"address1":"201 N Broadway Ave","address2":"","address3":"","city":"Urbana","zip_code":"61801","country":"US","state":"IL","display_address":["201 N Broadway Ave","Urbana, IL 61801"]},"phone":"+12179540465","display_phone":"(217) 954-0465","distance":385.0294977923837},{"id":"kKCwp86xU9XKRnAALQDhrw","alias":"the-red-herring-vegetarian-restaurant-urbana-2","name":"The Red Herring Vegetarian Restaurant","image_url":"https://s3-media1.fl.yelpcdn.com/bphoto/bWjurZlrqYtwuZSoE0ze7A/o.jpg","is_closed":false,"url":"https://www.yelp.com/biz/the-red-herring-vegetarian-restaurant-urbana-2?adjust_creative=eL75PEDehXcsxUnhLGP6HA&utm_campaign=yelp_api_v3&utm_medium=api_v3_business_search&utm_source=eL75PEDehXcsxUnhLGP6HA","review_count":68,"categories":[{"alias":"vegetarian","title":"Vegetarian"},{"alias":"cafes","title":"Cafes"},{"alias":"vegan","title":"Vegan"}],"rating":4.5,"coordinates":{"latitude":40.1067,"longitude":-88.22519},"transactions":["pickup"],"price":"$","location":{"address1":"1209 W Oregon St","address2":null,"address3":"","city":"Urbana","zip_code":"61801","country":"US","state":"IL","display_address":["1209 W Oregon St","Urbana, IL 61801"]},"phone":"+12173672340","display_phone":"(217) 367-2340","distance":1969.1077322776634},{"id":"ovApUucCKSb9k0lTP2JieQ","alias":"huaraches-moroleon-urbana","name":"Huaraches Moroleon","image_url":"https://s3-media2.fl.yelpcdn.com/bphoto/T_fOmqHS-DX0GPQtPf2TXQ/o.jpg","is_closed":false,"url":"https://www.yelp.com/biz/huaraches-moroleon-urbana?adjust_creative=eL75PEDehXcsxUnhLGP6HA&utm_campaign=yelp_api_v3&utm_medium=api_v3_business_search&utm_source=eL75PEDehXcsxUnhLGP6HA","review_count":281,"categories":[{"alias":"mexican","title":"Mexican"}],"rating":4.5,"coordinates":{"latitude":40.1058499,"longitude":-88.1950899},"transactions":["delivery"],"price":"$","location":{"address1":"805 Philo Rd","address2":"","address3":"","city":"Urbana","zip_code":"61801","country":"US","state":"IL","display_address":["805 Philo Rd","Urbana, IL 61801"]},"phone":"+12173446772","display_phone":"(217) 344-6772","distance":1041.2098944330087},{"id":"vorWTFw9SjliDmdpbt6ltg","alias":"la-bahía-grill-champaign","name":"La Bahía Grill","image_url":"https://s3-media2.fl.yelpcdn.com/bphoto/Tkuv_559AS2W0B3c5jTJ0A/o.jpg","is_closed":false,"url":"https://www.yelp.com/biz/la-bah%C3%ADa-grill-champaign?adjust_creative=eL75PEDehXcsxUnhLGP6HA&utm_campaign=yelp_api_v3&utm_medium=api_v3_business_search&utm_source=eL75PEDehXcsxUnhLGP6HA","review_count":18,"categories":[{"alias":"mexican","title":"Mexican"},{"alias":"seafood","title":"Seafood"}],"rating":4.5,"coordinates":{"latitude":40.11853,"longitude":-88.2448},"transactions":["pickup","delivery"],"location":{"address1":"132 W Church St","address2":"","address3":null,"city":"Champaign","zip_code":"61820","country":"US","state":"IL","display_address":["132 W Church St","Champaign, IL 61820"]},"phone":"+12176075958","display_phone":"(217) 607-5958","distance":3581.1341920193086},{"id":"m6nLTIrEJHtHSYJjVavnzw","alias":"kohinoor-indian-restaurant-and-lounge-champaign","name":"Kohinoor Indian Restaurant and Lounge","image_url":"https://s3-media2.fl.yelpcdn.com/bphoto/jw9mf5zDMuShdfRjIZM1Sw/o.jpg","is_closed":false,"url":"https://www.yelp.com/biz/kohinoor-indian-restaurant-and-lounge-champaign?adjust_creative=eL75PEDehXcsxUnhLGP6HA&utm_campaign=yelp_api_v3&utm_medium=api_v3_business_search&utm_source=eL75PEDehXcsxUnhLGP6HA","review_count":234,"categories":[{"alias":"indpak","title":"Indian"},{"alias":"bars","title":"Bars"}],"rating":4.5,"coordinates":{"latitude":40.1212553299844,"longitude":-88.2427998585683},"transactions":["delivery","pickup"],"price":"$$","location":{"address1":"6 E Columbia Ave","address2":"","address3":null,"city":"Champaign","zip_code":"61820","country":"US","state":"IL","display_address":["6 E Columbia Ave","Champaign, IL 61820"]},"phone":"+12175521384","display_phone":"(217) 552-1384","distance":3482.588049657144},{"id":"VIJ2KiDKhUVhhpNylEIfog","alias":"maize-mexican-grill-champaign","name":"Maize Mexican Grill","image_url":"https://s3-media1.fl.yelpcdn.com/bphoto/5__7aQIIspRznoSqOx33YA/o.jpg","is_closed":false,"url":"https://www.yelp.com/biz/maize-mexican-grill-champaign?adjust_creative=eL75PEDehXcsxUnhLGP6HA&utm_campaign=yelp_api_v3&utm_medium=api_v3_business_search&utm_source=eL75PEDehXcsxUnhLGP6HA","review_count":687,"categories":[{"alias":"mexican","title":"Mexican"}],"rating":4.5,"coordinates":{"latitude":40.110394,"longitude":-88.238946},"transactions":["delivery","pickup"],"price":"$","location":{"address1":"60 E Green St","address2":null,"address3":"","city":"Champaign","zip_code":"61820","country":"US","state":"IL","display_address":["60 E Green St","Champaign, IL 61820"]},"phone":"+12173556400","display_phone":"(217) 355-6400","distance":3034.65282087755},{"id":"J2mmkwPiTQg3aCXP3afiJQ","alias":"sticky-rice-champaign","name":"Sticky Rice","image_url":"https://s3-media1.fl.yelpcdn.com/bphoto/zTVY_wbBDlm9bfr0Kt-k8w/o.jpg","is_closed":false,"url":"https://www.yelp.com/biz/sticky-rice-champaign?adjust_creative=eL75PEDehXcsxUnhLGP6HA&utm_campaign=yelp_api_v3&utm_medium=api_v3_business_search&utm_source=eL75PEDehXcsxUnhLGP6HA","review_count":124,"categories":[{"alias":"laotian","title":"Laotian"},{"alias":"thai","title":"Thai"},{"alias":"noodles","title":"Noodles"}],"rating":4.5,"coordinates":{"latitude":40.1194276897291,"longitude":-88.2438507269437},"transactions":["pickup","delivery"],"price":"$$","location":{"address1":"415 N Neil St","address2":"","address3":null,"city":"Champaign","zip_code":"61820","country":"US","state":"IL","display_address":["415 N Neil St","Champaign, IL 61820"]},"phone":"+12179541929","display_phone":"(217) 954-1929","distance":3520.1560793493304},{"id":"-zEpEmDfFQL-ph0N3BDlXA","alias":"sakanaya-champaign-2","name":"Sakanaya","image_url":"https://s3-media2.fl.yelpcdn.com/bphoto/cHogr6eHY3Jd8lgM27j_uA/o.jpg","is_closed":false,"url":"https://www.yelp.com/biz/sakanaya-champaign-2?adjust_creative=eL75PEDehXcsxUnhLGP6HA&utm_campaign=yelp_api_v3&utm_medium=api_v3_business_search&utm_source=eL75PEDehXcsxUnhLGP6HA","review_count":568,"categories":[{"alias":"japanese","title":"Japanese"},{"alias":"sushi","title":"Sushi Bars"}],"rating":4.5,"coordinates":{"latitude":40.11001,"longitude":-88.23307},"transactions":["pickup","delivery"],"price":"$$","location":{"address1":"403 E Green St","address2":null,"address3":"","city":"Champaign","zip_code":"61820","country":"US","state":"IL","display_address":["403 E Green St","Champaign, IL 61820"]},"phone":"+12173441400","display_phone":"(217) 344-1400","distance":2527.5899176686044},{"id":"t_yiQnxUDdPPCN2z4QyezA","alias":"golden-harbor-authentic-chinese-cuisine-champaign","name":"Golden Harbor Authentic Chinese Cuisine","image_url":"https://s3-media3.fl.yelpcdn.com/bphoto/T9xKcRD0s2l4X-yZpBXG2A/o.jpg","is_closed":false,"url":"https://www.yelp.com/biz/golden-harbor-authentic-chinese-cuisine-champaign?adjust_creative=eL75PEDehXcsxUnhLGP6HA&utm_campaign=yelp_api_v3&utm_medium=api_v3_business_search&utm_source=eL75PEDehXcsxUnhLGP6HA","review_count":509,"categories":[{"alias":"chinese","title":"Chinese"},{"alias":"taiwanese","title":"Taiwanese"}],"rating":4.5,"coordinates":{"latitude":40.11127,"longitude":-88.2443},"transactions":["pickup","delivery"],"price":"$$","location":{"address1":"505 S Neil St","address2":null,"address3":"","city":"Champaign","zip_code":"61820","country":"US","state":"IL","display_address":["505 S Neil St","Champaign, IL 61820"]},"phone":"+12173988988","display_phone":"(217) 398-8988","distance":3470.288449943565},{"id":"vt2NMSbKpVN0r0HI6Az4bw","alias":"bevier-cafe-urbana","name":"Bevier Cafe","image_url":"https://s3-media3.fl.yelpcdn.com/bphoto/6WjZ-ka9GdkhAuU33wW-WQ/o.jpg","is_closed":false,"url":"https://www.yelp.com/biz/bevier-cafe-urbana?adjust_creative=eL75PEDehXcsxUnhLGP6HA&utm_campaign=yelp_api_v3&utm_medium=api_v3_business_search&utm_source=eL75PEDehXcsxUnhLGP6HA","review_count":24,"categories":[{"alias":"newamerican","title":"American (New)"},{"alias":"cafes","title":"Cafes"}],"rating":4.5,"coordinates":{"latitude":40.1053118,"longitude":-88.2240076},"transactions":[],"price":"$","location":{"address1":"905 S Goodwin Ave","address2":"Bevier Hall, Rm 298","address3":"","city":"Urbana","zip_code":"61801","country":"US","state":"IL","display_address":["905 S Goodwin Ave","Bevier Hall, Rm 298","Urbana, IL 61801"]},"phone":"+12173338469","display_phone":"(217) 333-8469","distance":2013.3227201263696},{"id":"KsgPDVYE2m_7e2729e8d0A","alias":"tanaka-ramen-and-izakaya-champaign","name":"Tanaka Ramen & Izakaya","image_url":"https://s3-media2.fl.yelpcdn.com/bphoto/BVYYcey-tWVNtQsUAGpkDA/o.jpg","is_closed":false,"url":"https://www.yelp.com/biz/tanaka-ramen-and-izakaya-champaign?adjust_creative=eL75PEDehXcsxUnhLGP6HA&utm_campaign=yelp_api_v3&utm_medium=api_v3_business_search&utm_source=eL75PEDehXcsxUnhLGP6HA","review_count":4,"categories":[{"alias":"japacurry","title":"Japanese Curry"},{"alias":"ramen","title":"Ramen"}],"rating":4.5,"coordinates":{"latitude":40.110355,"longitude":-88.237412},"transactions":["delivery","restaurant_reservation","pickup"],"location":{"address1":"112 E Green St","address2":"Ste A","address3":"","city":"Champaign","zip_code":"61820","country":"US","state":"IL","display_address":["112 E Green St","Ste A","Champaign, IL 61820"]},"phone":"+12176071444","display_phone":"(217) 607-1444","distance":2910.501308555675},{"id":"hoOxQnljm6_zTMEQhZwLgg","alias":"mo-s-burritos-restaurant-champaign","name":"Mo’s Burritos Restaurant","image_url":"https://s3-media1.fl.yelpcdn.com/bphoto/hKw4VxxyITxgEGlrVhjnbQ/o.jpg","is_closed":false,"url":"https://www.yelp.com/biz/mo-s-burritos-restaurant-champaign?adjust_creative=eL75PEDehXcsxUnhLGP6HA&utm_campaign=yelp_api_v3&utm_medium=api_v3_business_search&utm_source=eL75PEDehXcsxUnhLGP6HA","review_count":14,"categories":[{"alias":"mexican","title":"Mexican"}],"rating":4,"coordinates":{"latitude":40.12245608140397,"longitude":-88.24402737261413},"transactions":["pickup","delivery"],"location":{"address1":"705 N Neil St","address2":null,"address3":"","city":"Champaign","zip_code":"61820","country":"US","state":"IL","display_address":["705 N Neil St","Champaign, IL 61820"]},"phone":"+12175506016","display_phone":"(217) 550-6016","distance":3620.732654440967},{"id":"a39B-BfbCipNkNH7vwCfug","alias":"mid-summer-lounge-champaign","name":"Mid-Summer Lounge","image_url":"https://s3-media2.fl.yelpcdn.com/bphoto/q_OkCd-im8sD8KL7jexnxQ/o.jpg","is_closed":false,"url":"https://www.yelp.com/biz/mid-summer-lounge-champaign?adjust_creative=eL75PEDehXcsxUnhLGP6HA&utm_campaign=yelp_api_v3&utm_medium=api_v3_business_search&utm_source=eL75PEDehXcsxUnhLGP6HA","review_count":94,"categories":[{"alias":"chinese","title":"Chinese"},{"alias":"asianfusion","title":"Asian Fusion"},{"alias":"noodles","title":"Noodles"}],"rating":4,"coordinates":{"latitude":40.1101851,"longitude":-88.2294518},"transactions":["pickup","delivery"],"price":"$$","location":{"address1":"623 E Green St","address2":"","address3":null,"city":"Champaign","zip_code":"61820","country":"US","state":"IL","display_address":["623 E Green St","Champaign, IL 61820"]},"phone":"+12176071434","display_phone":"(217) 607-1434","distance":2235.5999552422154},{"id":"FsnwQwatA43aeGhJlxQ_Kg","alias":"paris-super-crepes-champaign","name":"Paris Super Crepes","image_url":"https://s3-media3.fl.yelpcdn.com/bphoto/ssobKZipzcVDs_c-stHjpA/o.jpg","is_closed":false,"url":"https://www.yelp.com/biz/paris-super-crepes-champaign?adjust_creative=eL75PEDehXcsxUnhLGP6HA&utm_campaign=yelp_api_v3&utm_medium=api_v3_business_search&utm_source=eL75PEDehXcsxUnhLGP6HA","review_count":63,"categories":[{"alias":"desserts","title":"Desserts"},{"alias":"creperies","title":"Creperies"}],"rating":4,"coordinates":{"latitude":40.111185,"longitude":-88.2305749},"transactions":["pickup","delivery"],"price":"$","location":{"address1":"601 S 6th St","address2":"Ste 106","address3":null,"city":"Champaign","zip_code":"61820","country":"US","state":"IL","display_address":["601 S 6th St","Ste 106","Champaign, IL 61820"]},"phone":"+12176071404","display_phone":"(217) 607-1404","distance":2316.6956028684963},{"id":"uqS-Vr0yWzVQiuwB6_ff3Q","alias":"la-paloma-food-truck-urbana","name":"La Paloma Food Truck","image_url":"https://s3-media1.fl.yelpcdn.com/bphoto/CGpZS1EcV6TGdzN266XiJA/o.jpg","is_closed":false,"url":"https://www.yelp.com/biz/la-paloma-food-truck-urbana?adjust_creative=eL75PEDehXcsxUnhLGP6HA&utm_campaign=yelp_api_v3&utm_medium=api_v3_business_search&utm_source=eL75PEDehXcsxUnhLGP6HA","review_count":3,"categories":[{"alias":"foodtrucks","title":"Food Trucks"},{"alias":"mexican","title":"Mexican"}],"rating":4.5,"coordinates":{"latitude":40.1129,"longitude":-88.17492},"transactions":[],"location":{"address1":"","address2":null,"address3":"","city":"Urbana","zip_code":"61802","country":"US","state":"IL","display_address":["Urbana, IL 61802"]},"phone":"+12176217284","display_phone":"(217) 621-7284","distance":406.6531820222789},{"id":"DYyPETuVpaXZRcTNQuA1Cw","alias":"sooie-bros-bar-b-que-joint-champaign","name":"Sooie Bros Bar-B-Que Joint","image_url":"","is_closed":false,"url":"https://www.yelp.com/biz/sooie-bros-bar-b-que-joint-champaign?adjust_creative=eL75PEDehXcsxUnhLGP6HA&utm_campaign=yelp_api_v3&utm_medium=api_v3_business_search&utm_source=eL75PEDehXcsxUnhLGP6HA","review_count":3,"categories":[{"alias":"bbq","title":"Barbeque"}],"rating":4.5,"coordinates":{"latitude":40.12739,"longitude":-88.23914},"transactions":[],"location":{"address1":"1201 N Market St","address2":"","address3":null,"city":"Champaign","zip_code":"61820","country":"US","state":"IL","display_address":["1201 N Market St","Champaign, IL 61820"]},"phone":"+12175521305","display_phone":"(217) 552-1305","distance":3452.027885546313},{"id":"9scRPldniHdbTMUEtaQm-g","alias":"niros-gyros-champaign-8","name":"Niro's Gyros","image_url":"https://s3-media2.fl.yelpcdn.com/bphoto/ekJsbgerkmVj2k3CkPfvvQ/o.jpg","is_closed":false,"url":"https://www.yelp.com/biz/niros-gyros-champaign-8?adjust_creative=eL75PEDehXcsxUnhLGP6HA&utm_campaign=yelp_api_v3&utm_medium=api_v3_business_search&utm_source=eL75PEDehXcsxUnhLGP6HA","review_count":6,"categories":[{"alias":"greek","title":"Greek"}],"rating":4,"coordinates":{"latitude":40.097792,"longitude":-88.248382},"transactions":["pickup","delivery"],"location":{"address1":"401 W Kirby Ave","address2":null,"address3":null,"city":"Champaign","zip_code":"61820","country":"US","state":"IL","display_address":["401 W Kirby Ave","Champaign, IL 61820"]},"phone":"+12176937969","display_phone":"(217) 693-7969","distance":4182.272780576163},{"id":"54pbmQvIJDYHkRHuIWCsqA","alias":"nolas-rock-bar-urbana","name":"NOLA's Rock Bar","image_url":"https://s3-media3.fl.yelpcdn.com/bphoto/JgJT3Ewif-DcjbddIp5Pmg/o.jpg","is_closed":false,"url":"https://www.yelp.com/biz/nolas-rock-bar-urbana?adjust_creative=eL75PEDehXcsxUnhLGP6HA&utm_campaign=yelp_api_v3&utm_medium=api_v3_business_search&utm_source=eL75PEDehXcsxUnhLGP6HA","review_count":13,"categories":[{"alias":"bars","title":"Bars"},{"alias":"pizza","title":"Pizza"},{"alias":"cajun","title":"Cajun/Creole"}],"rating":4,"coordinates":{"latitude":40.1122796865125,"longitude":-88.2082923846558},"transactions":["delivery","pickup"],"price":"$","location":{"address1":"119 W Main St","address2":"","address3":null,"city":"Urbana","zip_code":"61801","country":"US","state":"IL","display_address":["119 W Main St","Urbana, IL 61801"]},"phone":"+12175311452","display_phone":"(217) 531-1452","distance":419.68942757516345},{"id":"LvPbZ_5odnjE_oj5BNHivQ","alias":"casa-del-mar-urbana","name":"Casa Del Mar","image_url":"https://s3-media3.fl.yelpcdn.com/bphoto/JvFr-sosIm7Vzh60i1dGKQ/o.jpg","is_closed":false,"url":"https://www.yelp.com/biz/casa-del-mar-urbana?adjust_creative=eL75PEDehXcsxUnhLGP6HA&utm_campaign=yelp_api_v3&utm_medium=api_v3_business_search&utm_source=eL75PEDehXcsxUnhLGP6HA","review_count":46,"categories":[{"alias":"mexican","title":"Mexican"}],"rating":4,"coordinates":{"latitude":40.0815782,"longitude":-88.1902225},"transactions":["delivery","pickup"],"location":{"address1":"2870 S Philo Rd","address2":"","address3":null,"city":"Urbana","zip_code":"61802","country":"US","state":"IL","display_address":["2870 S Philo Rd","Urbana, IL 61802"]},"phone":"+12175521525","display_phone":"(217) 552-1525","distance":3678.4714350915865},{"id":"LyGab6ITDEMDI5E0YcC0Ng","alias":"the-himalayan-chimney-champaign","name":"The Himalayan Chimney","image_url":"https://s3-media3.fl.yelpcdn.com/bphoto/GSGTstE3ZnX1ywPuhzq-5g/o.jpg","is_closed":false,"url":"https://www.yelp.com/biz/the-himalayan-chimney-champaign?adjust_creative=eL75PEDehXcsxUnhLGP6HA&utm_campaign=yelp_api_v3&utm_medium=api_v3_business_search&utm_source=eL75PEDehXcsxUnhLGP6HA","review_count":147,"categories":[{"alias":"indpak","title":"Indian"},{"alias":"bars","title":"Bars"}],"rating":4,"coordinates":{"latitude":40.11853,"longitude":-88.24496},"transactions":["pickup","delivery"],"price":"$$","location":{"address1":"134 W Church St","address2":"","address3":"","city":"Champaign","zip_code":"61820","country":"US","state":"IL","display_address":["134 W Church St","Champaign, IL 61820"]},"phone":"+12175521834","display_phone":"(217) 552-1834","distance":3594.310903832585},{"id":"SvxSoyZn0WW0c7bFLIYfMA","alias":"baxters-american-grille-champaign","name":"Baxter's American Grille","image_url":"https://s3-media3.fl.yelpcdn.com/bphoto/nmxaT9epvotpAp5Mkib9dQ/o.jpg","is_closed":false,"url":"https://www.yelp.com/biz/baxters-american-grille-champaign?adjust_creative=eL75PEDehXcsxUnhLGP6HA&utm_campaign=yelp_api_v3&utm_medium=api_v3_business_search&utm_source=eL75PEDehXcsxUnhLGP6HA","review_count":105,"categories":[{"alias":"tradamerican","title":"American (Traditional)"},{"alias":"steak","title":"Steakhouses"},{"alias":"bars","title":"Bars"}],"rating":4,"coordinates":{"latitude":40.0972098874916,"longitude":-88.2458299398422},"transactions":["delivery"],"price":"$$","location":{"address1":"100 Trade Centre Dr","address2":"","address3":null,"city":"Champaign","zip_code":"61820","country":"US","state":"IL","display_address":["100 Trade Centre Dr","Champaign, IL 61820"]},"phone":"+12172399299","display_phone":"(217) 239-9299","distance":4000.546033312342},{"id":"ejdBoVvEdn5fdycuJRen8Q","alias":"first-wok-urbana","name":"First Wok","image_url":"https://s3-media3.fl.yelpcdn.com/bphoto/7x56-AO9G_TQggVAh3337Q/o.jpg","is_closed":false,"url":"https://www.yelp.com/biz/first-wok-urbana?adjust_creative=eL75PEDehXcsxUnhLGP6HA&utm_campaign=yelp_api_v3&utm_medium=api_v3_business_search&utm_source=eL75PEDehXcsxUnhLGP6HA","review_count":45,"categories":[{"alias":"chinese","title":"Chinese"}],"rating":4,"coordinates":{"latitude":40.0964994728565,"longitude":-88.1907360255718},"transactions":["delivery"],"price":"$","location":{"address1":"1805 Philo Rd","address2":"","address3":"","city":"Urbana","zip_code":"61802","country":"US","state":"IL","display_address":["1805 Philo Rd","Urbana, IL 61802"]},"phone":"+12173444500","display_phone":"(217) 344-4500","distance":2064.335455770336}],"total":256,"region":{"center":{"longitude":-88.2033920288086,"latitude":40.112727532770165}}}