{"businesses":[{"id":"sjpsGKPABZDnABCv3wYtUQ","alias":"rosatis-pizza-urbana-2","name":"Rosati's Pizza","image_url":"https://s3-media2.fl.yelpcdn.com/bphoto/jK9oAfFxHznqQRw7sIBErg/o.jpg","is_closed":false,"url":"https://www.yelp.com/biz/rosatis-pizza-urbana-2?adjust_creative=eL75PEDehXcsxUnhLGP6HA&utm_campaign=yelp_api_v3&utm_medium=api_v3_business_search&utm_source=eL75PEDehXcsxUnhLGP6HA","review_count":87,"categories":[{"alias":"pizza","title":"Pizza"},{"alias":"italian","title":"Italian"},{"alias":"chicken_wings","title":"Chicken Wings"}],"rating":3,"coordinates":{"latitude":40.106751608927524,"longitude":-88.22171405122367},"transactions":["delivery","pickup"],"price":"$","location":{"address1":"701 S Gregory St","address2":"Unit H","address3":"","city":"Urbana","zip_code":"61801","country":"US","state":"IL","display_address":["701 S Gregory St","Unit H","Urbana, IL 61801"]},"phone":"+12175521202","display_phone":"(217) 552-1202","distance":1693.935411376432},{"id":"rXIDrS8Rz8r09vH4gjHfGQ","alias":"manolos-pizza-and-empanadas-urbana","name":"Manolo's Pizza & Empanadas","image_url":"https://s3-media4.fl.yelpcdn.com/bphoto/4_YBcEp6Q9tDdiCk6fNsZg/o.jpg","is_closed":false,"url":"https://www.yelp.com/biz/manolos-pizza-and-empanadas-urbana?adjust_creative=eL75PEDehXcsxUnhLGP6HA&utm_campaign=yelp_api_v3&utm_medium=api_v3_business_search&utm_source=eL75PEDehXcsxUnhLGP6HA","review_count":129,"categories":[{"alias":"pizza","title":"Pizza"},{"alias":"empanadas","title":"Empanadas"}],"rating":4,"coordinates":{"latitude":40.1068635052099,"longitude":-88.223394},"transactions":["delivery","pickup"],"price":"$","location":{"address1":"1115 W Oregon St","address2":"","address3":"","city":"Urbana","zip_code":"61801","country":"US","state":"IL","display_address":["1115 W Oregon St","Urbana, IL 61801"]},"phone":"+12173650110","display_phone":"(217) 365-0110","distance":1821.720622487266},{"id":"CrIWqmuO2uQWwl3z11K_BA","alias":"pizzeria-antica-champaign","name":"Pizzeria Antica","image_url":"https://s3-media1.fl.yelpcdn.com/bphoto/C27Y-ly20vZJh3hVs---eg/o.jpg","is_closed":false,"url":"https://www.yelp.com/biz/pizzeria-antica-champaign?adjust_creative=eL75PEDehXcsxUnhLGP6HA&utm_campaign=yelp_api_v3&utm_medium=api_v3_business_search&utm_source=eL75PEDehXcsxUnhLGP6HA","review_count":172,"categories":[{"alias":"pizza","title":"Pizza"},{"alias":"italian","title":"Italian"}],"rating":4,"coordinates":{"latitude":40.11686,"longitude":-88.24296},"transactions":["delivery"],"price":"$$","location":{"address1":"10 E Chester St","address2":null,"address3":"","city":"Champaign","zip_code":"61820","country":"US","state":"IL","display_address":["10 E Chester St","Champaign, IL 61820"]},"phone":"+12175304137","display_phone":"(217) 530-4137","distance":3400.8811160657788},{"id":"u8C8pRvaHXg3PgDrsUHJHQ","alias":"papa-dels-pizza-champaign-4","name":"Papa Del's Pizza","image_url":"https://s3-media3.fl.yelpcdn.com/bphoto/4nKN8PBUp3zkLjOsJIuaWw/o.jpg","is_closed":false,"url":"https://www.yelp.com/biz/papa-dels-pizza-champaign-4?adjust_creative=eL75PEDehXcsxUnhLGP6HA&utm_campaign=yelp_api_v3&utm_medium=api_v3_business_search&utm_source=eL75PEDehXcsxUnhLGP6HA","review_count":546,"categories":[{"alias":"pizza","title":"Pizza"},{"alias":"salad","title":"Salad"},{"alias":"sandwiches","title":"Sandwiches"}],"rating":3.5,"coordinates":{"latitude":40.1032417,"longitude":-88.2441637},"transactions":["delivery"],"price":"$$","location":{"address1":"1201 S Neil St","address2":"","address3":"","city":"Champaign","zip_code":"61820","country":"US","state":"IL","display_address":["1201 S Neil St","Champaign, IL 61820"]},"phone":"+12173597700","display_phone":"(217) 359-7700","distance":3624.318512382441},{"id":"gWZOW4-8N5dLixQAlp8iRg","alias":"manzellas-italian-restaurant-champaign-4","name":"Manzellas Italian Restaurant","image_url":"https://s3-media3.fl.yelpcdn.com/bphoto/DwTBfzW38NB0lGtggfuz7g/o.jpg","is_closed":false,"url":"https://www.yelp.com/biz/manzellas-italian-restaurant-champaign-4?adjust_creative=eL75PEDehXcsxUnhLGP6HA&utm_campaign=yelp_api_v3&utm_medium=api_v3_business_search&utm_source=eL75PEDehXcsxUnhLGP6HA","review_count":51,"categories":[{"alias":"venues","title":"Venues & Event Spaces"},{"alias":"italian","title":"Italian"}],"rating":3,"coordinates":{"latitude":40.115836,"longitude":-88.238981},"transactions":["delivery","pickup"],"location":{"address1":"115 S 1st St","address2":null,"address3":null,"city":"Champaign","zip_code":"61820","country":"US","state":"IL","display_address":["115 S 1st St","Champaign, IL 61820"]},"phone":"+12173527624","display_phone":"(217) 352-7624","distance":3041.521266067611},{"id":"5dCJy5oH6ZHqB_7cx76DhA","alias":"pizza-hut-champaign","name":"Pizza Hut","image_url":"https://s3-media3.fl.yelpcdn.com/bphoto/W7hWWNRODQZtCIneA0dkIQ/o.jpg","is_closed":false,"url":"https://www.yelp.com/biz/pizza-hut-champaign?adjust_creative=eL75PEDehXcsxUnhLGP6HA&utm_campaign=yelp_api_v3&utm_medium=api_v3_business_search&utm_source=eL75PEDehXcsxUnhLGP6HA","review_count":27,"categories":[{"alias":"pizza","title":"Pizza"},{"alias":"chicken_wings","title":"Chicken Wings"},{"alias":"hotdogs","title":"Fast Food"}],"rating":2,"coordinates":{"latitude":40.1202096,"longitude":-88.277289},"transactions":["delivery","pickup"],"price":"$","location":{"address1":"409 N Mattis Ave","address2":"","address3":"","city":"Champaign","zip_code":"61821","country":"US","state":"IL","display_address":["409 N Mattis Ave","Champaign, IL 61821"]},"phone":"+12173598807","display_phone":"(217) 359-8807","distance":6338.642530659843}],"total":9,"region":{"center":{"longitude":-88.2033920288086,"latitude":40.112727532770165}}}